{
  "matched": 430,
  "rewrittenEntries": 693,
  "total": 430,
  "sources": {
    "TencentPlaceSearch(GCJ-02)": 29,
    "OpenStreetMap/Overpass(WGS84->GCJ-02)": 234,
    "OpenStreetMap/OverpassReview(WGS84->GCJ-02)": 1,
    "GaodeAmapPlaceSearch(GCJ-02)": 112,
    "BaiduPlaceSearch(BD09->GCJ-02)": 14,
    "TencentPlaceSearchReview(GCJ-02)": 9,
    "ManualUserProvided(GCJ-02)": 31
  },
  "updates": [
    {
      "school": "成都市天涯石小学",
      "source": "TencentPlaceSearch(GCJ-02)",
      "matchedTitle": "成都市天涯石小学",
      "address": "四川省成都市锦江区书院街街道天涯石南街78号(市二医院地铁站C口步行370米)",
      "score": 182,
      "location": {
        "lat": 30.657153,
        "lng": 104.087831
      },
      "old": [
        104.085,
        30.661
      ]
    },
    {
      "school": "成都市和平街小学",
      "source": "TencentPlaceSearch(GCJ-02)",
      "matchedTitle": "成都市和平街小学",
      "address": "四川省成都市锦江区书院街街道竹林巷62号(市二医院地铁站F口步行460米)",
      "score": 182,
      "location": {
        "lat": 30.663227,
        "lng": 104.081605
      },
      "old": [
        104.09,
        30.67
      ]
    },
    {
      "school": "成都市天涯石小学昭忠祠分校",
      "source": "TencentPlaceSearch(GCJ-02)",
      "matchedTitle": "成都市天涯石小学昭忠祠分校",
      "address": "四川省成都市锦江区书院街街道昭忠祠街62号",
      "score": 182,
      "location": {
        "lat": 30.667077,
        "lng": 104.089383
      },
      "old": [
        104.1,
        30.67
      ]
    },
    {
      "school": "成都市盐道街小学",
      "source": "TencentPlaceSearch(GCJ-02)",
      "matchedTitle": "成都市盐道街小学",
      "address": "四川省成都市锦江区春熙路街道盐道街2号(锦江宾馆地铁站C1口步行350米)",
      "score": 182,
      "location": {
        "lat": 30.649195,
        "lng": 104.071518
      },
      "old": [
        104.1,
        30.64
      ]
    },
    {
      "school": "成都师范附属小学",
      "source": "TencentPlaceSearch(GCJ-02)",
      "matchedTitle": "成都师范附属小学",
      "address": "四川省成都市锦江区铜井巷与龙王庙正街交叉口正北方向39米左右",
      "score": 182,
      "location": {
        "lat": 30.64915,
        "lng": 104.078024
      },
      "old": [
        104.079,
        30.656
      ]
    },
    {
      "school": "成都市龙王庙正街小学",
      "source": "TencentPlaceSearch(GCJ-02)",
      "matchedTitle": "龙王庙正街小学",
      "address": "四川省成都市锦江区锦官驿街道龙王庙正街84号",
      "score": 130,
      "location": {
        "lat": 30.649271,
        "lng": 104.078174
      },
      "old": [
        104.087,
        30.654
      ]
    },
    {
      "school": "成都市七中育才附属小学锦官驿校区",
      "source": "TencentPlaceSearch(GCJ-02)",
      "matchedTitle": "成都市七中育才附属小学(锦官驿校区)",
      "address": "四川省成都市锦江区东大街牛王庙段70(牛王庙地铁站E口步行120米)",
      "score": 128,
      "location": {
        "lat": 30.645906,
        "lng": 104.091268
      },
      "old": [
        104.094,
        30.651
      ]
    },
    {
      "school": "成都市盐道街小学（东区）",
      "source": "TencentPlaceSearch(GCJ-02)",
      "matchedTitle": "成都市盐道街小学(东区)",
      "address": "四川省成都市锦江区牛市口街道莲花南路10号(顺江路地铁站C口步行470米)",
      "score": 182,
      "location": {
        "lat": 30.63657,
        "lng": 104.097154
      },
      "old": [
        104.107,
        30.648
      ]
    },
    {
      "school": "成都市娇子小学",
      "source": "TencentPlaceSearch(GCJ-02)",
      "matchedTitle": "成都市娇子小学",
      "address": "四川省成都市锦江区牛市口街道宏顺街116号(牛王庙地铁站C口步行420米)",
      "score": 182,
      "location": {
        "lat": 30.641189,
        "lng": 104.096095
      },
      "old": [
        104.099,
        30.647
      ]
    },
    {
      "school": "成都市龙舟路小学",
      "source": "TencentPlaceSearch(GCJ-02)",
      "matchedTitle": "成都市龙舟路小学",
      "address": "四川省成都市锦江区东湖街道糍粑店街93号(净居寺地铁站A口步行380米)",
      "score": 182,
      "location": {
        "lat": 30.624491,
        "lng": 104.101195
      },
      "old": [
        104.106,
        30.64
      ]
    },
    {
      "school": "成都师范附属小学万科分校",
      "source": "TencentPlaceSearch(GCJ-02)",
      "matchedTitle": "成都师范附属小学(万科分校)",
      "address": "四川省成都市锦江区狮子山街道花园街20号",
      "score": 126,
      "location": {
        "lat": 30.61568,
        "lng": 104.114183
      },
      "old": [
        104.122,
        30.658
      ]
    },
    {
      "school": "成都市沙河堡小学",
      "source": "TencentPlaceSearch(GCJ-02)",
      "matchedTitle": "成都市沙河堡小学",
      "address": "四川省成都市锦江区岷山路9",
      "score": 182,
      "location": {
        "lat": 30.625653,
        "lng": 104.122828
      },
      "old": [
        104.13,
        30.645
      ]
    },
    {
      "school": "成都市盐道街小学得胜分校",
      "source": "TencentPlaceSearch(GCJ-02)",
      "matchedTitle": "成都市盐道街小学得胜分校",
      "address": "四川省成都市锦江区锦华路街道仁居路19号(琉三路地铁站C口步行410米)",
      "score": 182,
      "location": {
        "lat": 30.600746,
        "lng": 104.101773
      },
      "old": [
        104.115,
        30.625
      ]
    },
    {
      "school": "成都市锦江区外国语小学",
      "source": "TencentPlaceSearch(GCJ-02)",
      "matchedTitle": "锦江外国语小学",
      "address": "四川省成都市锦江区成龙路街道粮丰村月季街77号",
      "score": 110,
      "location": {
        "lat": 30.606006,
        "lng": 104.142995
      },
      "old": [
        104.135,
        30.62
      ]
    },
    {
      "school": "成都市锦江区大观小学",
      "source": "TencentPlaceSearch(GCJ-02)",
      "matchedTitle": "成都市大观小学",
      "address": "四川省成都市锦江区成龙路街道大观里6号",
      "score": 107,
      "location": {
        "lat": 30.616264,
        "lng": 104.138401
      },
      "old": [
        104.128,
        30.65
      ]
    },
    {
      "school": "成都市菱窠路小学",
      "source": "TencentPlaceSearch(GCJ-02)",
      "matchedTitle": "成都市菱窠路小学",
      "address": "四川省成都市锦江区狮子山街道菱窠路133号(狮子山地铁站B口步行340米)",
      "score": 182,
      "location": {
        "lat": 30.618139,
        "lng": 104.121509
      },
      "old": [
        104.125,
        30.635
      ]
    },
    {
      "school": "成都市锦江区教育科学研究院附属小学",
      "source": "TencentPlaceSearch(GCJ-02)",
      "matchedTitle": "成都市锦江区教育科学研究院附属小学",
      "address": "四川省成都市锦江区牛市口街道经华南路41号",
      "score": 182,
      "location": {
        "lat": 30.643153,
        "lng": 104.105547
      },
      "old": [
        104.103,
        30.645
      ]
    },
    {
      "school": "成都市盐道街小学锦馨分校",
      "source": "TencentPlaceSearch(GCJ-02)",
      "matchedTitle": "成都市盐道街小学锦馨分校",
      "address": "四川省成都市锦江区榕声路166号",
      "score": 182,
      "location": {
        "lat": 30.590191,
        "lng": 104.097211
      },
      "old": [
        104.118,
        30.628
      ]
    },
    {
      "school": "成都市东光实验小学",
      "source": "TencentPlaceSearch(GCJ-02)",
      "matchedTitle": "成都市东光实验小学",
      "address": "四川省成都市锦江区东湖街道东怡街65号(东光地铁站G口步行440米)",
      "score": 182,
      "location": {
        "lat": 30.617059,
        "lng": 104.102744
      },
      "old": [
        104.11,
        30.638
      ]
    },
    {
      "school": "成都师范附属小学白鹭溪分校",
      "source": "TencentPlaceSearch(GCJ-02)",
      "matchedTitle": "成都师范附属小学(白鹭溪分校)",
      "address": "四川省成都市锦江区白鹭湾湿地附近",
      "score": 127,
      "location": {
        "lat": 30.5602,
        "lng": 104.11265
      },
      "old": [
        104.145,
        30.605
      ]
    },
    {
      "school": "成都师范附属小学三圣分校",
      "source": "TencentPlaceSearch(GCJ-02)",
      "matchedTitle": "成都师范附属小学(三圣分校)",
      "address": "四川省成都市锦江区三圣乡白桦林路(四川大学华西第二医院锦江院区旁)",
      "score": 126,
      "location": {
        "lat": 30.58544,
        "lng": 104.145232
      },
      "old": [
        104.155,
        30.615
      ]
    },
    {
      "school": "成都市七中育才附属小学东湖校区",
      "source": "TencentPlaceSearch(GCJ-02)",
      "matchedTitle": "成都市七中育才附属小学(东湖校区)",
      "address": "四川省成都市锦江区锦丽路270号(东光地铁站C口步行160米)",
      "score": 128,
      "location": {
        "lat": 30.618268,
        "lng": 104.095837
      },
      "old": [
        104.12,
        30.65
      ]
    },
    {
      "school": "成都市锦江实验学校",
      "source": "TencentPlaceSearch(GCJ-02)",
      "matchedTitle": "成都市锦江实验学校",
      "address": "四川省成都市锦江区成龙路街道蝶花街577号",
      "score": 182,
      "location": {
        "lat": 30.610943,
        "lng": 104.133552
      },
      "old": [
        104.133,
        30.64
      ]
    },
    {
      "school": "成都师范附属小学华润分校",
      "source": "TencentPlaceSearch(GCJ-02)",
      "matchedTitle": "成都师范附属小学(华润分校)",
      "address": "四川省成都市锦江区东湖街道锦华路一段260号(东光地铁站G口步行390米)",
      "score": 126,
      "location": {
        "lat": 30.615292,
        "lng": 104.098047
      },
      "old": [
        104.125,
        30.628
      ]
    },
    {
      "school": "成都市盐道街小学卓锦分校",
      "source": "TencentPlaceSearch(GCJ-02)",
      "matchedTitle": "成都市盐道街小学(卓锦分校)",
      "address": "四川省成都市锦江区成龙路街道海枣街88号",
      "score": 125,
      "location": {
        "lat": 30.599887,
        "lng": 104.134934
      },
      "old": [
        104.158,
        30.625
      ]
    },
    {
      "school": "成都市天涯石小学逸景分校",
      "source": "TencentPlaceSearch(GCJ-02)",
      "matchedTitle": "成都市天涯石小学(逸景分校)",
      "address": "四川省成都市锦江区皇经楼路锦城逸景小区天涯石",
      "score": 125,
      "location": {
        "lat": 30.590783,
        "lng": 104.111997
      },
      "old": [
        104.13,
        30.618
      ]
    },
    {
      "school": "成都市锦江区马家沟小学",
      "source": "TencentPlaceSearch(GCJ-02)",
      "matchedTitle": "成都市马家沟小学",
      "address": "四川省成都市锦江区沙河街道马家沟160号",
      "score": 110,
      "location": {
        "lat": 30.623395,
        "lng": 104.111593
      },
      "old": [
        104.14,
        30.638
      ]
    },
    {
      "school": "成都市盐道街小学528校区",
      "source": "TencentPlaceSearch(GCJ-02)",
      "matchedTitle": "成都市盐道街小学(528校区)",
      "address": "四川省成都市锦江区三圣街道喜树街669号",
      "score": 126,
      "location": {
        "lat": 30.594661,
        "lng": 104.146626
      },
      "old": [
        104.138,
        30.622
      ]
    },
    {
      "school": "成都市七中育才附属小学银杏校区",
      "source": "TencentPlaceSearch(GCJ-02)",
      "matchedTitle": "成都市七中育才附属小学(银杏校区)",
      "address": "四川省成都市锦江区杨树街177号",
      "score": 128,
      "location": {
        "lat": 30.590059,
        "lng": 104.150539
      },
      "old": [
        104.142,
        30.617
      ]
    },
    {
      "school": "成都师范附属小学慧源校区",
      "source": "OpenStreetMap/Overpass(WGS84->GCJ-02)",
      "matchedTitle": "成都师范附属小学(慧源校区)",
      "address": "",
      "score": 106,
      "distanceKm": 0,
      "location": {
        "lng": 104.11004853281621,
        "lat": 30.63042189560537
      },
      "old": [
        104.11,
        30.633
      ],
      "osmId": "way/1356420691"
    },
    {
      "school": "成都市盐道街小学通桂校区",
      "source": "OpenStreetMap/Overpass(WGS84->GCJ-02)",
      "matchedTitle": "盐道街小学（通桂校区）",
      "address": "",
      "score": 102,
      "distanceKm": 0,
      "location": {
        "lng": 104.11906546058052,
        "lat": 30.637259951808918
      },
      "old": [
        104.122,
        30.643
      ],
      "osmId": "way/926110165"
    },
    {
      "school": "成都市锦江区祝国寺小学",
      "source": "OpenStreetMap/Overpass(WGS84->GCJ-02)",
      "matchedTitle": "区祝国寺小学",
      "address": "",
      "score": 92,
      "distanceKm": 0,
      "location": {
        "lng": 104.09333124407307,
        "lat": 30.580064218567713
      },
      "old": [
        104.13,
        30.622
      ],
      "osmId": "way/1364505064"
    },
    {
      "school": "成都市盐道街中学",
      "source": "OpenStreetMap/Overpass(WGS84->GCJ-02)",
      "matchedTitle": "盐道街中学（初中部）",
      "address": "",
      "score": 101,
      "distanceKm": 0,
      "location": {
        "lng": 104.06856784367235,
        "lat": 30.649875733310406
      },
      "old": [
        104.099,
        30.648
      ],
      "osmId": "way/587802051"
    },
    {
      "school": "成都市田家炳中学",
      "source": "OpenStreetMap/Overpass(WGS84->GCJ-02)",
      "matchedTitle": "成都市田家炳中学",
      "address": "",
      "score": 158,
      "distanceKm": 0,
      "location": {
        "lng": 104.09582824576239,
        "lat": 30.63131936667589
      },
      "old": [
        104.114,
        30.642
      ],
      "osmId": "way/1238629022"
    },
    {
      "school": "成都市七中育才学校（汇源校区）",
      "source": "OpenStreetMap/Overpass(WGS84->GCJ-02)",
      "matchedTitle": "成都七中育才学校（新校区）",
      "address": "",
      "score": 104,
      "distanceKm": 0,
      "location": {
        "lng": 104.10822251186983,
        "lat": 30.631472682728127
      },
      "old": [
        104.112,
        30.632
      ],
      "osmId": "way/926110156"
    },
    {
      "school": "四川师大附中外国语学校",
      "source": "OpenStreetMap/Overpass(WGS84->GCJ-02)",
      "matchedTitle": "四川师大附中外国语学校",
      "address": "",
      "score": 158,
      "distanceKm": 0,
      "location": {
        "lng": 104.13391019254034,
        "lat": 30.620764460561993
      },
      "old": [
        104.14,
        30.643
      ],
      "osmId": "way/1357358185"
    },
    {
      "school": "成都市七中育才学校华兴分校",
      "source": "OpenStreetMap/Overpass(WGS84->GCJ-02)",
      "matchedTitle": "成都七中育才学校",
      "address": "锦江区双槐树街45号",
      "score": 107,
      "distanceKm": 0,
      "location": {
        "lng": 104.08804059169276,
        "lat": 30.64449544320181
      },
      "old": [
        104.095,
        30.661
      ],
      "osmId": "way/288171594"
    },
    {
      "school": "成都市七中育才学校（东湖校区）",
      "source": "OpenStreetMap/Overpass(WGS84->GCJ-02)",
      "matchedTitle": "成都市七中育才学校(东湖校区)",
      "address": "",
      "score": 158,
      "distanceKm": 0,
      "location": {
        "lng": 104.09620503001753,
        "lat": 30.616277207073217
      },
      "old": [
        104.123,
        30.653
      ],
      "osmId": "way/1347081004"
    },
    {
      "school": "四川省成都市盐道街中学（南区）",
      "source": "OpenStreetMap/Overpass(WGS84->GCJ-02)",
      "matchedTitle": "盐道街中学（高中部）",
      "address": "",
      "score": 88,
      "distanceKm": 0,
      "location": {
        "lng": 104.07106771111935,
        "lat": 30.64722762823173
      },
      "old": [
        104.132,
        30.618
      ],
      "osmId": "way/582845154"
    },
    {
      "school": "成都市七中育才学校（银杏校区）",
      "source": "OpenStreetMap/Overpass(WGS84->GCJ-02)",
      "matchedTitle": "成都七中育才学校银杏校区",
      "address": "",
      "score": 104,
      "distanceKm": 0,
      "location": {
        "lng": 104.14778746251623,
        "lat": 30.588573309519116
      },
      "old": [
        104.143,
        30.617
      ],
      "osmId": "way/947245600"
    },
    {
      "school": "成都市青羊实验中学附属小学",
      "source": "OpenStreetMap/Overpass(WGS84->GCJ-02)",
      "matchedTitle": "成都市青羊实验中学附属小学",
      "address": "",
      "score": 160,
      "distanceKm": 0,
      "location": {
        "lng": 103.9969905509968,
        "lat": 30.66795527218983
      },
      "old": [
        104.02,
        30.673
      ],
      "osmId": "way/1118384058"
    },
    {
      "school": "成都市草堂小学",
      "source": "OpenStreetMap/Overpass(WGS84->GCJ-02)",
      "matchedTitle": "成都市草堂小学",
      "address": "青羊区浣花南路180",
      "score": 170,
      "distanceKm": 0,
      "location": {
        "lng": 104.03473602949121,
        "lat": 30.658819827560436
      },
      "old": [
        104.039,
        30.667
      ],
      "osmId": "way/1282535314"
    },
    {
      "school": "成都市石室联合成飞学校",
      "source": "OpenStreetMap/Overpass(WGS84->GCJ-02)",
      "matchedTitle": "石室联合成飞学校（初中部）",
      "address": "",
      "score": 104,
      "distanceKm": 0,
      "location": {
        "lng": 103.96154630339572,
        "lat": 30.69501040884612
      },
      "old": [
        103.998,
        30.72
      ],
      "osmId": "way/1108264063"
    },
    {
      "school": "成都市鼓楼小学",
      "source": "OpenStreetMap/Overpass(WGS84->GCJ-02)",
      "matchedTitle": "成都市鼓楼小学",
      "address": "",
      "score": 160,
      "distanceKm": 0,
      "location": {
        "lng": 104.07448516458578,
        "lat": 30.665026258282627
      },
      "old": [
        104.066,
        30.673
      ],
      "osmId": "way/1355663614"
    },
    {
      "school": "西南财经大学附属小学",
      "source": "OpenStreetMap/Overpass(WGS84->GCJ-02)",
      "matchedTitle": "西南财经大学附属小学",
      "address": "",
      "score": 125,
      "distanceKm": 0,
      "location": {
        "lng": 104.01206371484325,
        "lat": 30.663677792994154
      },
      "old": [
        104.035,
        30.68
      ],
      "osmId": "way/988877008"
    },
    {
      "school": "成都市实验小学明道分校",
      "source": "OpenStreetMap/Overpass(WGS84->GCJ-02)",
      "matchedTitle": "成都市实验小学（明道分校）",
      "address": "",
      "score": 103,
      "distanceKm": 0,
      "location": {
        "lng": 103.96970226728023,
        "lat": 30.687595450406004
      },
      "old": [
        104.006,
        30.7
      ],
      "osmId": "way/1025198279"
    },
    {
      "school": "成都市浣花小学校",
      "source": "OpenStreetMap/Overpass(WGS84->GCJ-02)",
      "matchedTitle": "浣花小学",
      "address": "",
      "score": 89,
      "distanceKm": 0,
      "location": {
        "lng": 104.02870736169287,
        "lat": 30.670572718516812
      },
      "old": [
        104.03,
        30.683
      ],
      "osmId": "way/1374953379"
    },
    {
      "school": "成都市回民小学",
      "source": "OpenStreetMap/Overpass(WGS84->GCJ-02)",
      "matchedTitle": "成都市回民小学",
      "address": "",
      "score": 160,
      "distanceKm": 0,
      "location": {
        "lng": 104.06147891327765,
        "lat": 30.659053273345467
      },
      "old": [
        104.062,
        30.665
      ],
      "osmId": "way/993398663"
    },
    {
      "school": "成都市双眼井小学",
      "source": "OpenStreetMap/Overpass(WGS84->GCJ-02)",
      "matchedTitle": "双眼井小学",
      "address": "",
      "score": 103,
      "distanceKm": 0,
      "location": {
        "lng": 104.07857730745958,
        "lat": 30.67060077779501
      },
      "old": [
        104.075,
        30.68
      ],
      "osmId": "way/1379115008"
    },
    {
      "school": "成都市泡桐树小学",
      "source": "OpenStreetMap/Overpass(WGS84->GCJ-02)",
      "matchedTitle": "泡桐树小学",
      "address": "",
      "score": 103,
      "distanceKm": 0,
      "location": {
        "lng": 104.05523883484514,
        "lat": 30.66449089943846
      },
      "old": [
        104.065,
        30.678
      ],
      "osmId": "way/576684164"
    },
    {
      "school": "成都市实验小学西区分校",
      "source": "OpenStreetMap/Overpass(WGS84->GCJ-02)",
      "matchedTitle": "成都市实验小学西区分校",
      "address": "",
      "score": 160,
      "distanceKm": 0,
      "location": {
        "lng": 103.97932148818424,
        "lat": 30.66661088324345
      },
      "old": [
        104.012,
        30.668
      ],
      "osmId": "way/987927142"
    },
    {
      "school": "成都市彩虹小学",
      "source": "OpenStreetMap/Overpass(WGS84->GCJ-02)",
      "matchedTitle": "成都市彩虹小学",
      "address": "",
      "score": 160,
      "distanceKm": 0,
      "location": {
        "lng": 104.0575979978539,
        "lat": 30.650606135006026
      },
      "old": [
        104.06,
        30.661
      ],
      "osmId": "way/925874301"
    },
    {
      "school": "成都市少城小学",
      "source": "OpenStreetMap/Overpass(WGS84->GCJ-02)",
      "matchedTitle": "少城小学",
      "address": "",
      "score": 99,
      "distanceKm": 0,
      "location": {
        "lng": 104.05399901426442,
        "lat": 30.6615312350425
      },
      "old": [
        104.057,
        30.671
      ],
      "osmId": "way/619703470"
    },
    {
      "school": "成都市胜西小学",
      "source": "OpenStreetMap/Overpass(WGS84->GCJ-02)",
      "matchedTitle": "成都胜西小学",
      "address": "横小南街11、12",
      "score": 160,
      "distanceKm": 0,
      "location": {
        "lng": 104.05374009171805,
        "lat": 30.659987735333022
      },
      "old": [
        104.06,
        30.667
      ],
      "osmId": "way/1258748213"
    },
    {
      "school": "成都市实验小学",
      "source": "OpenStreetMap/Overpass(WGS84->GCJ-02)",
      "matchedTitle": "成都实验小学分校",
      "address": "",
      "score": 107,
      "distanceKm": 0,
      "location": {
        "lng": 104.02779515154084,
        "lat": 30.676529395963485
      },
      "old": [
        104.062,
        30.674
      ],
      "osmId": "way/545679930"
    },
    {
      "school": "成都市花园(国际)小学",
      "source": "OpenStreetMap/Overpass(WGS84->GCJ-02)",
      "matchedTitle": "成都花园国际小学",
      "address": "",
      "score": 100,
      "distanceKm": 0,
      "location": {
        "lng": 104.00962932910184,
        "lat": 30.658744031190583
      },
      "old": [
        104.03,
        30.69
      ],
      "osmId": "way/587609130"
    },
    {
      "school": "成都市实验小学青华分校",
      "source": "OpenStreetMap/Overpass(WGS84->GCJ-02)",
      "matchedTitle": "成都市实验小学(青华分校)",
      "address": "",
      "score": 103,
      "distanceKm": 0,
      "location": {
        "lng": 104.02618293151106,
        "lat": 30.664363361771418
      },
      "old": [
        104.04,
        30.68
      ],
      "osmId": "way/1359575135"
    },
    {
      "school": "成都市青羊区教育科学研究院附属实验学校",
      "source": "OpenStreetMap/Overpass(WGS84->GCJ-02)",
      "matchedTitle": "成都市青羊区教育科学研究院附属实验学校",
      "address": "",
      "score": 152,
      "distanceKm": 0,
      "location": {
        "lng": 104.01642769318028,
        "lat": 30.677743841959643
      },
      "old": [
        104.022,
        30.69
      ],
      "osmId": "way/837502351"
    },
    {
      "school": "成都市实验小学战旗分校",
      "source": "OpenStreetMap/Overpass(WGS84->GCJ-02)",
      "matchedTitle": "成都市实验小学战旗分校",
      "address": "",
      "score": 160,
      "distanceKm": 0,
      "location": {
        "lng": 104.0216277281496,
        "lat": 30.679581001554265
      },
      "old": [
        104.024,
        30.689
      ],
      "osmId": "way/555467702"
    },
    {
      "school": "成都市同辉(国际)学校",
      "source": "OpenStreetMap/Overpass(WGS84->GCJ-02)",
      "matchedTitle": "同辉（国际）学校",
      "address": "",
      "score": 104,
      "distanceKm": 0,
      "location": {
        "lng": 103.97293645831706,
        "lat": 30.672537008123797
      },
      "old": [
        104.002,
        30.715
      ],
      "osmId": "way/539573584"
    },
    {
      "school": "成都市胜西小学文兴分校",
      "source": "OpenStreetMap/Overpass(WGS84->GCJ-02)",
      "matchedTitle": "成都市胜西小学（文兴分校）",
      "address": "",
      "score": 103,
      "distanceKm": 0,
      "location": {
        "lng": 103.9410338859724,
        "lat": 30.71614236721294
      },
      "old": [
        103.978,
        30.715
      ],
      "osmId": "way/974076292"
    },
    {
      "school": "成都市泡桐树小学西区分校",
      "source": "OpenStreetMap/Overpass(WGS84->GCJ-02)",
      "matchedTitle": "成都市泡桐树小学（西区）",
      "address": "",
      "score": 102,
      "distanceKm": 0,
      "location": {
        "lng": 103.99531997156164,
        "lat": 30.66398888287043
      },
      "old": [
        104.015,
        30.665
      ],
      "osmId": "way/1118654998"
    },
    {
      "school": "成都市草堂小学西区分校",
      "source": "OpenStreetMap/Overpass(WGS84->GCJ-02)",
      "matchedTitle": "成都市草堂小学（西区分校）",
      "address": "",
      "score": 103,
      "distanceKm": 0,
      "location": {
        "lng": 103.98745790971772,
        "lat": 30.679239970895896
      },
      "old": [
        103.997,
        30.69
      ],
      "osmId": "way/947250369"
    },
    {
      "school": "成都市东坡小学",
      "source": "OpenStreetMap/Overpass(WGS84->GCJ-02)",
      "matchedTitle": "东坡小学",
      "address": "",
      "score": 99,
      "distanceKm": 0,
      "location": {
        "lng": 103.98391369288696,
        "lat": 30.673034643644495
      },
      "old": [
        104.015,
        30.66
      ],
      "osmId": "way/669726784"
    },
    {
      "school": "成都市花园（国际）小学清波校区",
      "source": "OpenStreetMap/Overpass(WGS84->GCJ-02)",
      "matchedTitle": "成都市花园国际小学清波校区",
      "address": "",
      "score": 106,
      "distanceKm": 0,
      "location": {
        "lng": 103.99021236357534,
        "lat": 30.687941490319123
      },
      "old": [
        103.988,
        30.7
      ],
      "osmId": "way/987048108"
    },
    {
      "school": "成都市实验小学蕴雅校区",
      "source": "OpenStreetMap/Overpass(WGS84->GCJ-02)",
      "matchedTitle": "成都市实验小学（蕴雅校区）",
      "address": "",
      "score": 103,
      "distanceKm": 0,
      "location": {
        "lng": 103.9699833193121,
        "lat": 30.679492159232275
      },
      "old": [
        103.998,
        30.708
      ],
      "osmId": "way/940973338"
    },
    {
      "school": "成都市实验小学尚雅校区",
      "source": "OpenStreetMap/Overpass(WGS84->GCJ-02)",
      "matchedTitle": "成都市实验小学（尚雅校区）",
      "address": "",
      "score": 103,
      "distanceKm": 0,
      "location": {
        "lng": 103.99657336100411,
        "lat": 30.698896122488694
      },
      "old": [
        103.987,
        30.722
      ],
      "osmId": "way/1088758108"
    },
    {
      "school": "成都市草堂小学子美校区",
      "source": "OpenStreetMap/Overpass(WGS84->GCJ-02)",
      "matchedTitle": "成都市草堂小学",
      "address": "青羊区浣花南路180",
      "score": 102,
      "distanceKm": 0,
      "location": {
        "lng": 104.03473602949121,
        "lat": 30.658819827560436
      },
      "old": [
        104,
        30.712
      ],
      "osmId": "way/1282535314"
    },
    {
      "school": "成都市青羊区特殊教育学校",
      "source": "OpenStreetMap/Overpass(WGS84->GCJ-02)",
      "matchedTitle": "青羊区特殊教育学校",
      "address": "",
      "score": 106,
      "distanceKm": 0,
      "location": {
        "lng": 103.98406188897022,
        "lat": 30.667777112670933
      },
      "old": [
        104.03,
        30.685
      ],
      "osmId": "node/9331912724"
    },
    {
      "school": "成都市第十一中学",
      "source": "OpenStreetMap/Overpass(WGS84->GCJ-02)",
      "matchedTitle": "成都市第十一中学",
      "address": "",
      "score": 158,
      "distanceKm": 0,
      "location": {
        "lng": 104.0848098933848,
        "lat": 30.66623084517916
      },
      "old": [
        104.075,
        30.681
      ],
      "osmId": "node/1958204209"
    },
    {
      "school": "成都市树德实验中学（东区）",
      "source": "OpenStreetMap/Overpass(WGS84->GCJ-02)",
      "matchedTitle": "成都树德实验中学",
      "address": "",
      "score": 97,
      "distanceKm": 0,
      "location": {
        "lng": 104.05805871179427,
        "lat": 30.668919742661906
      },
      "old": [
        104.078,
        30.674
      ],
      "osmId": "way/591296333"
    },
    {
      "school": "成都市石室联合中学蜀华分校（初中部）",
      "source": "OpenStreetMap/Overpass(WGS84->GCJ-02)",
      "matchedTitle": "石室联合中学蜀华分校",
      "address": "",
      "score": 113,
      "distanceKm": 0,
      "location": {
        "lng": 104.05321207947195,
        "lat": 30.658383163066826
      },
      "old": [
        104.062,
        30.66
      ],
      "osmId": "way/1259323870"
    },
    {
      "school": "成都市树德实验中学（西区）",
      "source": "OpenStreetMap/Overpass(WGS84->GCJ-02)",
      "matchedTitle": "成都市树德实验中学西区",
      "address": "",
      "score": 101,
      "distanceKm": 0,
      "location": {
        "lng": 104.02769820932828,
        "lat": 30.664941627418873
      },
      "old": [
        104.03,
        30.682
      ],
      "osmId": "way/1359575088"
    },
    {
      "school": "成都市石室联合中学（西区）",
      "source": "OpenStreetMap/Overpass(WGS84->GCJ-02)",
      "matchedTitle": "成都市石室联合中学",
      "address": "",
      "score": 97,
      "distanceKm": 0,
      "location": {
        "lng": 104.0261701194956,
        "lat": 30.676359706481453
      },
      "old": [
        104.025,
        30.679
      ],
      "osmId": "way/545679924"
    },
    {
      "school": "成都市泡桐树中学",
      "source": "OpenStreetMap/Overpass(WGS84->GCJ-02)",
      "matchedTitle": "成都市泡桐树中学",
      "address": "",
      "score": 158,
      "distanceKm": 0,
      "location": {
        "lng": 104.00491266663012,
        "lat": 30.693730081290745
      },
      "old": [
        104,
        30.71
      ],
      "osmId": "way/587643277"
    },
    {
      "school": "成都市第三十七中学校",
      "source": "OpenStreetMap/Overpass(WGS84->GCJ-02)",
      "matchedTitle": "成都市第三十七中学校",
      "address": "",
      "score": 158,
      "distanceKm": 0,
      "location": {
        "lng": 103.98084676748825,
        "lat": 30.667411545843034
      },
      "old": [
        103.998,
        30.72
      ],
      "osmId": "way/987927141"
    },
    {
      "school": "成都市青羊实验中学（光华校区）",
      "source": "OpenStreetMap/Overpass(WGS84->GCJ-02)",
      "matchedTitle": "成都市青羊实验中学（光华校区）",
      "address": "",
      "score": 158,
      "distanceKm": 0,
      "location": {
        "lng": 103.96691409007653,
        "lat": 30.674962925435466
      },
      "old": [
        104.006,
        30.668
      ],
      "osmId": "way/940973351"
    },
    {
      "school": "成都市石室联合成飞学校（初中部）",
      "source": "OpenStreetMap/Overpass(WGS84->GCJ-02)",
      "matchedTitle": "石室联合成飞学校（初中部）",
      "address": "",
      "score": 110,
      "distanceKm": 0,
      "location": {
        "lng": 103.96154630339572,
        "lat": 30.69501040884612
      },
      "old": [
        103.998,
        30.72
      ],
      "osmId": "way/1108264063"
    },
    {
      "school": "成都市树德实验中学（清波校区）",
      "source": "OpenStreetMap/Overpass(WGS84->GCJ-02)",
      "matchedTitle": "成都市树德实验中学（清波校区）",
      "address": "",
      "score": 158,
      "distanceKm": 0,
      "location": {
        "lng": 103.98394324169425,
        "lat": 30.688128526038135
      },
      "old": [
        103.988,
        30.7
      ],
      "osmId": "way/604104002"
    },
    {
      "school": "成都市泡桐树中学同文分校",
      "source": "OpenStreetMap/Overpass(WGS84->GCJ-02)",
      "matchedTitle": "成都市泡桐树中学（同文分校）",
      "address": "",
      "score": 103,
      "distanceKm": 0,
      "location": {
        "lng": 103.94233079099189,
        "lat": 30.716044371405797
      },
      "old": [
        103.978,
        30.715
      ],
      "osmId": "way/974076294"
    },
    {
      "school": "成都市青羊区特殊教育学校（初中部）",
      "source": "OpenStreetMap/Overpass(WGS84->GCJ-02)",
      "matchedTitle": "青羊区特殊教育学校",
      "address": "",
      "score": 112,
      "distanceKm": 0,
      "location": {
        "lng": 103.98406188897022,
        "lat": 30.667777112670933
      },
      "old": [
        104.032,
        30.685
      ],
      "osmId": "node/9331912724"
    },
    {
      "school": "成都市玉林小学",
      "source": "OpenStreetMap/Overpass(WGS84->GCJ-02)",
      "matchedTitle": "成都市玉林小学",
      "address": "",
      "score": 160,
      "distanceKm": 0,
      "location": {
        "lng": 104.05949968831533,
        "lat": 30.62589051453699
      },
      "old": [
        104.052,
        30.635
      ],
      "osmId": "way/1346172640"
    },
    {
      "school": "成都市棕北小学",
      "source": "OpenStreetMap/Overpass(WGS84->GCJ-02)",
      "matchedTitle": "棕北小学",
      "address": "",
      "score": 99,
      "distanceKm": 0,
      "location": {
        "lng": 104.07447379184767,
        "lat": 30.626636330312454
      },
      "old": [
        104.045,
        30.645
      ],
      "osmId": "way/1346393013"
    },
    {
      "school": "成都市磨子桥小学",
      "source": "OpenStreetMap/Overpass(WGS84->GCJ-02)",
      "matchedTitle": "磨子桥小学",
      "address": "",
      "score": 103,
      "distanceKm": 0,
      "location": {
        "lng": 104.07149189281438,
        "lat": 30.632995269138636
      },
      "old": [
        104.063,
        30.637
      ],
      "osmId": "way/475633284"
    },
    {
      "school": "成都市科华中路小学",
      "source": "OpenStreetMap/Overpass(WGS84->GCJ-02)",
      "matchedTitle": "成都市科华中路小学",
      "address": "",
      "score": 160,
      "distanceKm": 0,
      "location": {
        "lng": 104.07584885010901,
        "lat": 30.612469975425096
      },
      "old": [
        104.067,
        30.635
      ],
      "osmId": "way/1362838428"
    },
    {
      "school": "成都市桐梓林小学",
      "source": "OpenStreetMap/Overpass(WGS84->GCJ-02)",
      "matchedTitle": "桐梓林小学",
      "address": "",
      "score": 103,
      "distanceKm": 0,
      "location": {
        "lng": 104.06080920913449,
        "lat": 30.61436906861295
      },
      "old": [
        104.05,
        30.623
      ],
      "osmId": "way/1342571117"
    },
    {
      "school": "成都市武侯区锦官新城小学",
      "source": "OpenStreetMap/Overpass(WGS84->GCJ-02)",
      "matchedTitle": "锦官新城小学",
      "address": "",
      "score": 87,
      "distanceKm": 0,
      "location": {
        "lng": 104.07573408965946,
        "lat": 30.617102299817827
      },
      "old": [
        104.04,
        30.62
      ],
      "osmId": "way/1362623834"
    },
    {
      "school": "成都市弟维小学",
      "source": "OpenStreetMap/Overpass(WGS84->GCJ-02)",
      "matchedTitle": "成都市弟维小学",
      "address": "",
      "score": 160,
      "distanceKm": 0,
      "location": {
        "lng": 104.06179536771879,
        "lat": 30.64505785424046
      },
      "old": [
        104.057,
        30.624
      ],
      "osmId": "way/1348676026"
    },
    {
      "school": "成都市武侯计算机实验小学",
      "source": "OpenStreetMap/Overpass(WGS84->GCJ-02)",
      "matchedTitle": "成都市武侯计算机实验小学",
      "address": "",
      "score": 160,
      "distanceKm": 0,
      "location": {
        "lng": 104.06323923531527,
        "lat": 30.635737832414733
      },
      "old": [
        104.033,
        30.631
      ],
      "osmId": "relation/19787713"
    },
    {
      "school": "成都市龙江路小学",
      "source": "OpenStreetMap/Overpass(WGS84->GCJ-02)",
      "matchedTitle": "成都市龙江路小学",
      "address": "",
      "score": 160,
      "distanceKm": 0,
      "location": {
        "lng": 104.07180777799344,
        "lat": 30.644965225491486
      },
      "old": [
        104.049,
        30.629
      ],
      "osmId": "way/444490843"
    },
    {
      "school": "四川音乐学院附属实验小学",
      "source": "OpenStreetMap/Overpass(WGS84->GCJ-02)",
      "matchedTitle": "四川音乐学院附属实验小学",
      "address": "",
      "score": 125,
      "distanceKm": 0,
      "location": {
        "lng": 104.08178699022041,
        "lat": 30.63743971966204
      },
      "old": [
        104.061,
        30.629
      ],
      "osmId": "way/1348695196"
    },
    {
      "school": "成都市龙江路小学分校",
      "source": "OpenStreetMap/Overpass(WGS84->GCJ-02)",
      "matchedTitle": "成都市龙江路小学",
      "address": "",
      "score": 110,
      "distanceKm": 0,
      "location": {
        "lng": 104.07180777799344,
        "lat": 30.644965225491486
      },
      "old": [
        104.044,
        30.625
      ],
      "osmId": "way/444490843"
    },
    {
      "school": "成都市锦里小学",
      "source": "OpenStreetMap/Overpass(WGS84->GCJ-02)",
      "matchedTitle": "成都市锦里小学",
      "address": "",
      "score": 160,
      "distanceKm": 0,
      "location": {
        "lng": 104.05759188204934,
        "lat": 30.646163213673223
      },
      "old": [
        104.035,
        30.637
      ],
      "osmId": "way/1348491889"
    },
    {
      "school": "成都市武侯区金苹果龙南小学",
      "source": "OpenStreetMap/Overpass(WGS84->GCJ-02)",
      "matchedTitle": "金苹果龙南小学",
      "address": "",
      "score": 90,
      "distanceKm": 0,
      "location": {
        "lng": 104.07153834047986,
        "lat": 30.643252146697147
      },
      "old": [
        104.047,
        30.621
      ],
      "osmId": "way/1252900004"
    },
    {
      "school": "成都市武侯实验小学",
      "source": "OpenStreetMap/Overpass(WGS84->GCJ-02)",
      "matchedTitle": "成都市武侯实验小学",
      "address": "",
      "score": 160,
      "distanceKm": 0,
      "location": {
        "lng": 104.02847539820853,
        "lat": 30.648418948059916
      },
      "old": [
        104.03,
        30.632
      ],
      "osmId": "way/1095087946"
    },
    {
      "school": "成都市红牌楼小学校",
      "source": "OpenStreetMap/Overpass(WGS84->GCJ-02)",
      "matchedTitle": "红牌楼小学",
      "address": "",
      "score": 95,
      "distanceKm": 0,
      "location": {
        "lng": 104.03644154125296,
        "lat": 30.638552612851225
      },
      "old": [
        104.02,
        30.63
      ],
      "osmId": "way/1346001978"
    },
    {
      "school": "成都市明远书院学校",
      "source": "OpenStreetMap/Overpass(WGS84->GCJ-02)",
      "matchedTitle": "成都市明远书院学校",
      "address": "",
      "score": 152,
      "distanceKm": 0,
      "location": {
        "lng": 104.01687995668631,
        "lat": 30.633213361952667
      },
      "old": [
        104.038,
        30.615
      ],
      "osmId": "way/1039086411"
    },
    {
      "school": "四川大学附属实验小学清水河分校",
      "source": "OpenStreetMap/Overpass(WGS84->GCJ-02)",
      "matchedTitle": "四川大学附属实验小学清水河分校",
      "address": "",
      "score": 125,
      "distanceKm": 0,
      "location": {
        "lng": 104.01894678756312,
        "lat": 30.652838649397392
      },
      "old": [
        104.015,
        30.622
      ],
      "osmId": "way/1347984810"
    },
    {
      "school": "成都市龙祥路小学",
      "source": "OpenStreetMap/Overpass(WGS84->GCJ-02)",
      "matchedTitle": "成都市龙祥路小学",
      "address": "",
      "score": 160,
      "distanceKm": 0,
      "location": {
        "lng": 104.01013538301734,
        "lat": 30.647446046258796
      },
      "old": [
        104.028,
        30.617
      ],
      "osmId": "way/1089046997"
    },
    {
      "school": "成都市晋阳小学",
      "source": "OpenStreetMap/Overpass(WGS84->GCJ-02)",
      "matchedTitle": "成都市晋阳小学",
      "address": "",
      "score": 160,
      "distanceKm": 0,
      "location": {
        "lng": 103.9981547602058,
        "lat": 30.64582610596681
      },
      "old": [
        104.022,
        30.612
      ],
      "osmId": "way/538385070"
    },
    {
      "school": "成都市武侯科技园小学",
      "source": "OpenStreetMap/Overpass(WGS84->GCJ-02)",
      "matchedTitle": "成都市武侯科技园小学",
      "address": "",
      "score": 160,
      "distanceKm": 0,
      "location": {
        "lng": 103.98762677781562,
        "lat": 30.636407008186303
      },
      "old": [
        104.005,
        30.613
      ],
      "osmId": "way/1082810416"
    },
    {
      "school": "成都市龙江路小学悦湖学校",
      "source": "OpenStreetMap/Overpass(WGS84->GCJ-02)",
      "matchedTitle": "成都市龙江路小学",
      "address": "",
      "score": 96,
      "distanceKm": 0,
      "location": {
        "lng": 104.07180777799344,
        "lat": 30.644965225491486
      },
      "old": [
        104.012,
        30.606
      ],
      "osmId": "way/444490843"
    },
    {
      "school": "成都市磨子桥小学分校",
      "source": "OpenStreetMap/Overpass(WGS84->GCJ-02)",
      "matchedTitle": "成都市磨子桥小学分校",
      "address": "",
      "score": 160,
      "distanceKm": 0,
      "location": {
        "lng": 104.00799821124623,
        "lat": 30.641497088004282
      },
      "old": [
        104.032,
        30.608
      ],
      "osmId": "way/1126464329"
    },
    {
      "school": "北京第二外国语学院成都附属小学北区学校",
      "source": "OpenStreetMap/Overpass(WGS84->GCJ-02)",
      "matchedTitle": "北京第二外国语学院成都附属小学北区学校",
      "address": "",
      "score": 125,
      "distanceKm": 0,
      "location": {
        "lng": 104.02435608622791,
        "lat": 30.61532652285637
      },
      "old": [
        103.995,
        30.604
      ],
      "osmId": "way/1103212708"
    },
    {
      "school": "成都市武顺街小学",
      "source": "OpenStreetMap/Overpass(WGS84->GCJ-02)",
      "matchedTitle": "成都市武顺街小学",
      "address": "",
      "score": 160,
      "distanceKm": 0,
      "location": {
        "lng": 103.98708824074286,
        "lat": 30.61730528003941
      },
      "old": [
        104.01,
        30.59
      ],
      "osmId": "way/1064547576"
    },
    {
      "school": "成都市马家河小学",
      "source": "OpenStreetMap/Overpass(WGS84->GCJ-02)",
      "matchedTitle": "马家河小学",
      "address": "",
      "score": 103,
      "distanceKm": 0,
      "location": {
        "lng": 103.96910095673489,
        "lat": 30.59023579260948
      },
      "old": [
        103.984,
        30.606
      ],
      "osmId": "way/1121028828"
    },
    {
      "school": "成都武侯外国语学校",
      "source": "OpenStreetMap/Overpass(WGS84->GCJ-02)",
      "matchedTitle": "成都武侯外国语学校",
      "address": "",
      "score": 152,
      "distanceKm": 0,
      "location": {
        "lng": 103.98309696852718,
        "lat": 30.601226748137375
      },
      "old": [
        103.954,
        30.636
      ],
      "osmId": "way/1112295243"
    },
    {
      "school": "四川大学附属实验小学明雅学校",
      "source": "OpenStreetMap/Overpass(WGS84->GCJ-02)",
      "matchedTitle": "四川大学附属实验小学明雅学校",
      "address": "",
      "score": 125,
      "distanceKm": 0,
      "location": {
        "lng": 103.96095438992245,
        "lat": 30.63314399543446
      },
      "old": [
        103.936,
        30.654
      ],
      "osmId": "way/1115665147"
    },
    {
      "school": "成都石室双楠实验学校",
      "source": "OpenStreetMap/Overpass(WGS84->GCJ-02)",
      "matchedTitle": "成都石室双楠实验学校",
      "address": "",
      "score": 152,
      "distanceKm": 0,
      "location": {
        "lng": 104.03084273300335,
        "lat": 30.644775530559976
      },
      "old": [
        104.01,
        30.65
      ],
      "osmId": "way/1095087924"
    },
    {
      "school": "成都市棕北中学西区实验学校",
      "source": "OpenStreetMap/Overpass(WGS84->GCJ-02)",
      "matchedTitle": "成都市棕北中学西区（小学部）",
      "address": "",
      "score": 89,
      "distanceKm": 0,
      "location": {
        "lng": 104.01994434688257,
        "lat": 30.64434149138022
      },
      "old": [
        104.022,
        30.646
      ],
      "osmId": "way/1089047012"
    },
    {
      "school": "成都市武侯实验中学附属小学",
      "source": "OpenStreetMap/Overpass(WGS84->GCJ-02)",
      "matchedTitle": "成都市武侯实验中学附属小学",
      "address": "",
      "score": 160,
      "distanceKm": 0,
      "location": {
        "lng": 103.98809448103071,
        "lat": 30.595093826082174
      },
      "old": [
        104.034,
        30.642
      ],
      "osmId": "way/1090550402"
    },
    {
      "school": "北京第二外国语学院成都附属小学",
      "source": "OpenStreetMap/Overpass(WGS84->GCJ-02)",
      "matchedTitle": "北京第二外国语学院成都附属小学",
      "address": "",
      "score": 125,
      "distanceKm": 0,
      "location": {
        "lng": 103.99984082737072,
        "lat": 30.622266764468975
      },
      "old": [
        104.046,
        30.638
      ],
      "osmId": "way/1011006522"
    },
    {
      "school": "成都市武侯区特殊教育学校",
      "source": "OpenStreetMap/Overpass(WGS84->GCJ-02)",
      "matchedTitle": "成都市武侯区特殊教育学校",
      "address": "",
      "score": 152,
      "distanceKm": 0,
      "location": {
        "lng": 104.0228296416171,
        "lat": 30.630039578207583
      },
      "old": [
        104.058,
        30.634
      ],
      "osmId": "way/1361714553"
    },
    {
      "school": "成都石室双楠实验学校（初中部）",
      "source": "OpenStreetMap/Overpass(WGS84->GCJ-02)",
      "matchedTitle": "成都石室双楠实验学校",
      "address": "",
      "score": 158,
      "distanceKm": 0,
      "location": {
        "lng": 104.03084273300335,
        "lat": 30.644775530559976
      },
      "old": [
        104.028,
        30.638
      ],
      "osmId": "way/1095087924"
    },
    {
      "school": "成都市棕北中学西区实验学校（初中部）",
      "source": "OpenStreetMap/Overpass(WGS84->GCJ-02)",
      "matchedTitle": "棕北中学西区实验学校",
      "address": "",
      "score": 113,
      "distanceKm": 0,
      "location": {
        "lng": 104.01980876247701,
        "lat": 30.641955583733683
      },
      "old": [
        104.022,
        30.646
      ],
      "osmId": "way/1089047022"
    },
    {
      "school": "四川省成都市石室锦官中学",
      "source": "OpenStreetMap/Overpass(WGS84->GCJ-02)",
      "matchedTitle": "成都石室锦官中学",
      "address": "",
      "score": 105,
      "distanceKm": 0,
      "location": {
        "lng": 104.02408850564544,
        "lat": 30.63217123918208
      },
      "old": [
        104.048,
        30.622
      ],
      "osmId": "way/1361714585"
    },
    {
      "school": "四川大学附属中学西区学校",
      "source": "OpenStreetMap/Overpass(WGS84->GCJ-02)",
      "matchedTitle": "四川大学附属中学西区学校",
      "address": "",
      "score": 123,
      "distanceKm": 0,
      "location": {
        "lng": 103.99691328394645,
        "lat": 30.64516448140348
      },
      "old": [
        104.012,
        30.613
      ],
      "osmId": "way/538385071"
    },
    {
      "school": "四川省成都市墨池书院中学",
      "source": "OpenStreetMap/Overpass(WGS84->GCJ-02)",
      "matchedTitle": "墨池书院",
      "address": "",
      "score": 91,
      "distanceKm": 0,
      "location": {
        "lng": 104.04193307768634,
        "lat": 30.558365927360207
      },
      "old": [
        104.052,
        30.633
      ],
      "osmId": "way/729992002"
    },
    {
      "school": "北京第二外国语学院成都附属中学",
      "source": "OpenStreetMap/Overpass(WGS84->GCJ-02)",
      "matchedTitle": "北京第二外国语学院成都附属中学",
      "address": "",
      "score": 123,
      "distanceKm": 0,
      "location": {
        "lng": 104.00118942459939,
        "lat": 30.62099022150752
      },
      "old": [
        104.04,
        30.635
      ],
      "osmId": "way/1011006521"
    },
    {
      "school": "成都市武侯实验中学",
      "source": "OpenStreetMap/Overpass(WGS84->GCJ-02)",
      "matchedTitle": "成都市武侯实验中学",
      "address": "",
      "score": 158,
      "distanceKm": 0,
      "location": {
        "lng": 103.99498819282441,
        "lat": 30.59507832485387
      },
      "old": [
        104.034,
        30.642
      ],
      "osmId": "way/1053207060"
    },
    {
      "school": "成都市棕北中学悦湖学校",
      "source": "OpenStreetMap/Overpass(WGS84->GCJ-02)",
      "matchedTitle": "成都市棕北中学悦湖学校",
      "address": "",
      "score": 158,
      "distanceKm": 0,
      "location": {
        "lng": 103.96046944620448,
        "lat": 30.634429494534853
      },
      "old": [
        104.014,
        30.608
      ],
      "osmId": "way/1115665146"
    },
    {
      "school": "成都市武侯区特殊教育学校（初中部）",
      "source": "OpenStreetMap/Overpass(WGS84->GCJ-02)",
      "matchedTitle": "成都市武侯区特殊教育学校",
      "address": "",
      "score": 158,
      "distanceKm": 0,
      "location": {
        "lng": 104.0228296416171,
        "lat": 30.630039578207583
      },
      "old": [
        104.058,
        30.634
      ],
      "osmId": "way/1361714553"
    },
    {
      "school": "成都玉林中学附属小学",
      "source": "OpenStreetMap/Overpass(WGS84->GCJ-02)",
      "matchedTitle": "成都市玉林中学附属小学（高小部）",
      "address": "",
      "score": 99,
      "distanceKm": 0,
      "location": {
        "lng": 104.04612443330451,
        "lat": 30.629841225780194
      },
      "old": [
        104.043671,
        30.632315
      ],
      "osmId": "way/1345145038"
    },
    {
      "school": "四川省成都高新区实验小学",
      "source": "OpenStreetMap/Overpass(WGS84->GCJ-02)",
      "matchedTitle": "四川省成都高新区实验小学",
      "address": "",
      "score": 160,
      "distanceKm": 0,
      "location": {
        "lng": 104.05302749835231,
        "lat": 30.60945438373599
      },
      "old": [
        104.050556,
        30.611922
      ],
      "osmId": "way/412069034"
    },
    {
      "school": "成都师范银都小学",
      "source": "OpenStreetMap/Overpass(WGS84->GCJ-02)",
      "matchedTitle": "成都师范银都小学",
      "address": "",
      "score": 160,
      "distanceKm": 0,
      "location": {
        "lng": 104.05453960631245,
        "lat": 30.62036498810945
      },
      "old": [
        104.052064,
        30.622825
      ],
      "osmId": "way/1362592280"
    },
    {
      "school": "成都高新区新光小学",
      "source": "OpenStreetMap/Overpass(WGS84->GCJ-02)",
      "matchedTitle": "成都高新区庆安小学",
      "address": "",
      "score": 98,
      "distanceKm": 0,
      "location": {
        "lng": 104.03164837823154,
        "lat": 30.604059560789445
      },
      "old": [
        104.037129,
        30.606828
      ],
      "osmId": "way/1362475790"
    },
    {
      "school": "成都高新区庆安小学",
      "source": "OpenStreetMap/Overpass(WGS84->GCJ-02)",
      "matchedTitle": "成都高新区庆安小学",
      "address": "",
      "score": 160,
      "distanceKm": 0,
      "location": {
        "lng": 104.03164837823154,
        "lat": 30.604059560789445
      },
      "old": [
        104.02924,
        30.60658
      ],
      "osmId": "way/1362475790"
    },
    {
      "school": "成都高新区锦城小学",
      "source": "OpenStreetMap/Overpass(WGS84->GCJ-02)",
      "matchedTitle": "成都高新区锦城小学",
      "address": "雍翠路120",
      "score": 160,
      "distanceKm": 0,
      "location": {
        "lng": 104.04967002647251,
        "lat": 30.59018380283311
      },
      "old": [
        104.047208,
        30.592665
      ],
      "osmId": "way/471991671"
    },
    {
      "school": "成都高新区锦晖小学",
      "source": "OpenStreetMap/Overpass(WGS84->GCJ-02)",
      "matchedTitle": "成都高新区锦晖小学",
      "address": "",
      "score": 160,
      "distanceKm": 0,
      "location": {
        "lng": 104.07344715892734,
        "lat": 30.587201423280412
      },
      "old": [
        104.070934,
        30.589644
      ],
      "osmId": "way/484309741"
    },
    {
      "school": "成都市泡桐树小学（天府校区）",
      "source": "OpenStreetMap/Overpass(WGS84->GCJ-02)",
      "matchedTitle": "泡桐树小学天府校区",
      "address": "",
      "score": 89,
      "distanceKm": 0,
      "location": {
        "lng": 104.05279656981668,
        "lat": 30.577576697960655
      },
      "old": [
        104.050327,
        30.580057
      ],
      "osmId": "way/472032353"
    },
    {
      "school": "四川省成都市石室天府中学附属小学",
      "source": "OpenStreetMap/Overpass(WGS84->GCJ-02)",
      "matchedTitle": "成都市石室天府中学附属小学",
      "address": "",
      "score": 115,
      "distanceKm": 0,
      "location": {
        "lng": 104.04454877240791,
        "lat": 30.58382834596934
      },
      "old": [
        104.042102,
        30.586324
      ],
      "osmId": "way/1363842273"
    },
    {
      "school": "成都蒙彼利埃小学",
      "source": "OpenStreetMap/Overpass(WGS84->GCJ-02)",
      "matchedTitle": "成都蒙彼利埃小学",
      "address": "",
      "score": 160,
      "distanceKm": 0,
      "location": {
        "lng": 104.05079647417648,
        "lat": 30.56450254512384
      },
      "old": [
        104.048333,
        30.566991
      ],
      "osmId": "way/483940120"
    },
    {
      "school": "成都墨池书院小学",
      "source": "OpenStreetMap/Overpass(WGS84->GCJ-02)",
      "matchedTitle": "成都墨池书院小学",
      "address": "",
      "score": 160,
      "distanceKm": 0,
      "location": {
        "lng": 104.04202841208281,
        "lat": 30.55727587956233
      },
      "old": [
        104.03959,
        30.559787
      ],
      "osmId": "way/1307163460"
    },
    {
      "school": "成都霍森斯小学",
      "source": "OpenStreetMap/Overpass(WGS84->GCJ-02)",
      "matchedTitle": "成都霍森斯小学",
      "address": "",
      "score": 160,
      "distanceKm": 0,
      "location": {
        "lng": 104.0363650937498,
        "lat": 30.559893022356217
      },
      "old": [
        104.033944,
        30.562417
      ],
      "osmId": "way/1366487682"
    },
    {
      "school": "成都师范银都紫藤南区小学",
      "source": "OpenStreetMap/Overpass(WGS84->GCJ-02)",
      "matchedTitle": "成都师范银都紫藤小学",
      "address": "",
      "score": 103,
      "distanceKm": 0,
      "location": {
        "lng": 104.07700971053161,
        "lat": 30.504106251590606
      },
      "old": [
        104.074495,
        30.506572
      ],
      "osmId": "way/1010398429"
    },
    {
      "school": "成都师范银都紫藤北区小学",
      "source": "OpenStreetMap/Overpass(WGS84->GCJ-02)",
      "matchedTitle": "成都师范银都紫藤小学",
      "address": "",
      "score": 103,
      "distanceKm": 0,
      "location": {
        "lng": 104.07700971053161,
        "lat": 30.504106251590606
      },
      "old": [
        104.077718,
        30.521419
      ],
      "osmId": "way/1010398429"
    },
    {
      "school": "成都高新区中和小学",
      "source": "OpenStreetMap/Overpass(WGS84->GCJ-02)",
      "matchedTitle": "成都高新区中和小学",
      "address": "",
      "score": 160,
      "distanceKm": 0,
      "location": {
        "lng": 104.09190514893893,
        "lat": 30.556439991812134
      },
      "old": [
        104.089372,
        30.558878
      ],
      "osmId": "way/1351839408"
    },
    {
      "school": "成都高新滨河学校",
      "source": "OpenStreetMap/Overpass(WGS84->GCJ-02)",
      "matchedTitle": "成都高新滨河学校",
      "address": "",
      "score": 152,
      "distanceKm": 0,
      "location": {
        "lng": 103.9152959876208,
        "lat": 30.80241868602775
      },
      "old": [
        103.913211,
        30.805114
      ],
      "osmId": "way/725814205"
    },
    {
      "school": "成都高新顺江学校",
      "source": "OpenStreetMap/Overpass(WGS84->GCJ-02)",
      "matchedTitle": "成都高新顺江学校",
      "address": "",
      "score": 152,
      "distanceKm": 0,
      "location": {
        "lng": 103.92884671403623,
        "lat": 30.740778525393367
      },
      "old": [
        103.926749,
        30.743495
      ],
      "osmId": "way/857697572"
    },
    {
      "school": "成都高新新科学校",
      "source": "OpenStreetMap/Overpass(WGS84->GCJ-02)",
      "matchedTitle": "成都高新新科学校",
      "address": "",
      "score": 152,
      "distanceKm": 0,
      "location": {
        "lng": 103.96065593605891,
        "lat": 30.747662700985735
      },
      "old": [
        103.958487,
        30.75032
      ],
      "osmId": "way/284337326"
    },
    {
      "school": "成都高新区西芯小学",
      "source": "OpenStreetMap/Overpass(WGS84->GCJ-02)",
      "matchedTitle": "高新区西芯小学",
      "address": "",
      "score": 110,
      "distanceKm": 0,
      "location": {
        "lng": 103.98219216356496,
        "lat": 30.719660178673593
      },
      "old": [
        103.979956,
        30.722275
      ],
      "osmId": "way/1164682194"
    },
    {
      "school": "成都高新区尚阳小学",
      "source": "OpenStreetMap/Overpass(WGS84->GCJ-02)",
      "matchedTitle": "高新区尚阳小学",
      "address": "",
      "score": 110,
      "distanceKm": 0,
      "location": {
        "lng": 103.93268825574299,
        "lat": 30.77594988128812
      },
      "old": [
        103.930583,
        30.778644
      ],
      "osmId": "way/1186523479"
    },
    {
      "school": "四川省成都市玉林中学（肖家河校区）",
      "source": "OpenStreetMap/Overpass(WGS84->GCJ-02)",
      "matchedTitle": "成都玉林中学肖家河校区",
      "address": "",
      "score": 100,
      "distanceKm": 0,
      "location": {
        "lng": 104.04506249932251,
        "lat": 30.629542468805898
      },
      "old": [
        104.042612,
        30.632019
      ],
      "osmId": "way/1345145035"
    },
    {
      "school": "四川省成都市玉林中学（紫荆校区）",
      "source": "OpenStreetMap/Overpass(WGS84->GCJ-02)",
      "matchedTitle": "玉林中学(紫荆校区)",
      "address": "",
      "score": 158,
      "distanceKm": 0,
      "location": {
        "lng": 104.04686318637697,
        "lat": 30.618194542274455
      },
      "old": [
        104.044408,
        30.620672
      ],
      "osmId": "way/1362582590"
    },
    {
      "school": "成都市天府实验学校北区分校（初中部）",
      "source": "OpenStreetMap/Overpass(WGS84->GCJ-02)",
      "matchedTitle": "成都天府实验学校",
      "address": "",
      "score": 97,
      "distanceKm": 0,
      "location": {
        "lng": 104.04056781942016,
        "lat": 30.5411167882062
      },
      "old": [
        104.076,
        30.559
      ],
      "osmId": "way/1274342718"
    },
    {
      "school": "成都市第七中学初中学校（天环校区）",
      "source": "OpenStreetMap/Overpass(WGS84->GCJ-02)",
      "matchedTitle": "成都七中初中学校（天环校区）",
      "address": "成都市高新区天环街199号",
      "score": 106,
      "distanceKm": 0,
      "location": {
        "lng": 104.07610948933433,
        "lat": 30.59606846490428
      },
      "old": [
        104.073592,
        30.598504
      ],
      "osmId": "way/476329031"
    },
    {
      "school": "成都市第七中学初中学校（锦城校区）",
      "source": "OpenStreetMap/Overpass(WGS84->GCJ-02)",
      "matchedTitle": "成都七中初中学校（锦城校区）",
      "address": "成都市高新区芸锦路63号",
      "score": 106,
      "distanceKm": 0,
      "location": {
        "lng": 104.05569808449604,
        "lat": 30.58983102604481
      },
      "old": [
        104.053221,
        30.592301
      ],
      "osmId": "way/472002325"
    },
    {
      "school": "成都市教育科学研究院附属学校(成都市天府实验学校)（初中部）",
      "source": "OpenStreetMap/Overpass(WGS84->GCJ-02)",
      "matchedTitle": "成都市教育科学研究院附属中学",
      "address": "",
      "score": 110,
      "distanceKm": 0,
      "location": {
        "lng": 104.03016347761344,
        "lat": 30.54774390673758
      },
      "old": [
        104.038134,
        30.543637
      ],
      "osmId": "way/958215097"
    },
    {
      "school": "成都市石室天府中学（锦城湖校区）",
      "source": "OpenStreetMap/Overpass(WGS84->GCJ-02)",
      "matchedTitle": "成都石室天府中学(锦城湖校区)",
      "address": "",
      "score": 158,
      "distanceKm": 0,
      "location": {
        "lng": 104.05260079688465,
        "lat": 30.562696273372975
      },
      "old": [
        104.050133,
        30.565182
      ],
      "osmId": "way/837554749"
    },
    {
      "school": "成都市教育科学研究院附属中学(天府五街校区）",
      "source": "OpenStreetMap/Overpass(WGS84->GCJ-02)",
      "matchedTitle": "成都市教科院附属中学（天府五街校区）",
      "address": "",
      "score": 99,
      "distanceKm": 0,
      "location": {
        "lng": 104.053662715901,
        "lat": 30.536338333814065
      },
      "old": [
        104.051193,
        30.538831
      ],
      "osmId": "way/667052401"
    },
    {
      "school": "成都市中和中学",
      "source": "OpenStreetMap/Overpass(WGS84->GCJ-02)",
      "matchedTitle": "成都市中和中学",
      "address": "",
      "score": 158,
      "distanceKm": 0,
      "location": {
        "lng": 104.0878340936244,
        "lat": 30.556903171678556
      },
      "old": [
        104.085304,
        30.559343
      ],
      "osmId": "way/1065169677"
    },
    {
      "school": "成都高新区银都紫藤初中学校",
      "source": "OpenStreetMap/Overpass(WGS84->GCJ-02)",
      "matchedTitle": "成都高新区银都紫藤初中学校",
      "address": "",
      "score": 158,
      "distanceKm": 0,
      "location": {
        "lng": 104.07739021495857,
        "lat": 30.505458249004818
      },
      "old": [
        104.074875,
        30.507923
      ],
      "osmId": "way/1010398431"
    },
    {
      "school": "四川省教科院附属实验中学",
      "source": "OpenStreetMap/Overpass(WGS84->GCJ-02)",
      "matchedTitle": "四川省教育科学研究院附属实验中学",
      "address": "",
      "score": 93,
      "distanceKm": 0,
      "location": {
        "lng": 104.10243414842051,
        "lat": 30.525919322149782
      },
      "old": [
        104.0999,
        30.52837
      ],
      "osmId": "way/1241964232"
    },
    {
      "school": "成都高新滨河学校（初中部）",
      "source": "OpenStreetMap/Overpass(WGS84->GCJ-02)",
      "matchedTitle": "成都高新滨河学校",
      "address": "",
      "score": 158,
      "distanceKm": 0,
      "location": {
        "lng": 103.9152959876208,
        "lat": 30.80241868602775
      },
      "old": [
        103.913211,
        30.805114
      ],
      "osmId": "way/725814205"
    },
    {
      "school": "成都高新顺江学校（初中部）",
      "source": "OpenStreetMap/Overpass(WGS84->GCJ-02)",
      "matchedTitle": "成都高新顺江学校",
      "address": "",
      "score": 158,
      "distanceKm": 0,
      "location": {
        "lng": 103.92884671403623,
        "lat": 30.740778525393367
      },
      "old": [
        103.926749,
        30.743495
      ],
      "osmId": "way/857697572"
    },
    {
      "school": "成都高新新科学校（初中部）",
      "source": "OpenStreetMap/Overpass(WGS84->GCJ-02)",
      "matchedTitle": "成都高新新科学校",
      "address": "",
      "score": 158,
      "distanceKm": 0,
      "location": {
        "lng": 103.96065593605891,
        "lat": 30.747662700985735
      },
      "old": [
        103.958487,
        30.75032
      ],
      "osmId": "way/284337326"
    },
    {
      "school": "电子科技大学实验中学（天骄校区）",
      "source": "OpenStreetMap/Overpass(WGS84->GCJ-02)",
      "matchedTitle": "电子科技大学实验中学（天骄校区）",
      "address": "",
      "score": 123,
      "distanceKm": 0,
      "location": {
        "lng": 103.91783053997948,
        "lat": 30.750494927926148
      },
      "old": [
        103.915745,
        30.753216
      ],
      "osmId": "way/605638642"
    },
    {
      "school": "电子科技大学实验中学（尚丰校区）",
      "source": "OpenStreetMap/Overpass(WGS84->GCJ-02)",
      "matchedTitle": "电子科技大学实验中学（尚丰校区）",
      "address": "",
      "score": 123,
      "distanceKm": 0,
      "location": {
        "lng": 103.92772146285385,
        "lat": 30.785745101082323
      },
      "old": [
        103.925623,
        30.78844
      ],
      "osmId": "way/962180929"
    },
    {
      "school": "成都市锦官城小学",
      "source": "OpenStreetMap/Overpass(WGS84->GCJ-02)",
      "matchedTitle": "成都市锦官城小学",
      "address": "",
      "score": 160,
      "distanceKm": 0,
      "location": {
        "lng": 104.0937527480773,
        "lat": 30.707365128925062
      },
      "old": [
        104.09,
        30.692
      ],
      "osmId": "way/946475326"
    },
    {
      "school": "成都市双水小学校",
      "source": "OpenStreetMap/Overpass(WGS84->GCJ-02)",
      "matchedTitle": "双水小学",
      "address": "",
      "score": 89,
      "distanceKm": 0,
      "location": {
        "lng": 104.09107849128496,
        "lat": 30.713547401723364
      },
      "old": [
        104.088,
        30.714
      ],
      "osmId": "way/946475324"
    },
    {
      "school": "成都市成华区教育科学研究院附属小学",
      "source": "OpenStreetMap/Overpass(WGS84->GCJ-02)",
      "matchedTitle": "成华区教育科学研究院附属小学",
      "address": "",
      "score": 120,
      "distanceKm": 0,
      "location": {
        "lng": 104.1202659394856,
        "lat": 30.70164864045502
      },
      "old": [
        104.098,
        30.704
      ],
      "osmId": "way/1126496152"
    },
    {
      "school": "成都市北新实验小学",
      "source": "OpenStreetMap/Overpass(WGS84->GCJ-02)",
      "matchedTitle": "成都市北新实验小学",
      "address": "",
      "score": 160,
      "distanceKm": 0,
      "location": {
        "lng": 104.10899338819866,
        "lat": 30.713795366872418
      },
      "old": [
        104.106,
        30.716
      ],
      "osmId": "way/577687828"
    },
    {
      "school": "成都市海滨小学校",
      "source": "OpenStreetMap/Overpass(WGS84->GCJ-02)",
      "matchedTitle": "成都市海滨小学校",
      "address": "",
      "score": 160,
      "distanceKm": 0,
      "location": {
        "lng": 104.12013925230637,
        "lat": 30.706557775359627
      },
      "old": [
        104.118,
        30.72
      ],
      "osmId": "way/895234988"
    },
    {
      "school": "成都市熊猫路小学校",
      "source": "OpenStreetMap/Overpass(WGS84->GCJ-02)",
      "matchedTitle": "熊猫路小学",
      "address": "",
      "score": 95,
      "distanceKm": 0,
      "location": {
        "lng": 104.13818104746193,
        "lat": 30.727459326320723
      },
      "old": [
        104.126,
        30.708
      ],
      "osmId": "way/612985013"
    },
    {
      "school": "成都市建设路小学",
      "source": "OpenStreetMap/Overpass(WGS84->GCJ-02)",
      "matchedTitle": "成都市建设路小学",
      "address": "",
      "score": 160,
      "distanceKm": 0,
      "location": {
        "lng": 104.11224169545821,
        "lat": 30.670939829388356
      },
      "old": [
        104.098,
        30.676
      ],
      "osmId": "way/259868478"
    },
    {
      "school": "成都市成华实验小学校",
      "source": "OpenStreetMap/Overpass(WGS84->GCJ-02)",
      "matchedTitle": "成华实验小学",
      "address": "",
      "score": 99,
      "distanceKm": 0,
      "location": {
        "lng": 104.11109570637439,
        "lat": 30.687566037669775
      },
      "old": [
        104.118,
        30.672
      ],
      "osmId": "way/1343810143"
    },
    {
      "school": "成都市成华小学校",
      "source": "OpenStreetMap/Overpass(WGS84->GCJ-02)",
      "matchedTitle": "成都市成华小学",
      "address": "",
      "score": 118,
      "distanceKm": 0,
      "location": {
        "lng": 104.10721770575493,
        "lat": 30.659251351413392
      },
      "old": [
        104.092,
        30.666
      ],
      "osmId": "node/1964536979"
    },
    {
      "school": "成都市培华小学校",
      "source": "OpenStreetMap/Overpass(WGS84->GCJ-02)",
      "matchedTitle": "成都市成华小学",
      "address": "",
      "score": 91,
      "distanceKm": 0,
      "location": {
        "lng": 104.10721770575493,
        "lat": 30.659251351413392
      },
      "old": [
        104.112,
        30.662
      ],
      "osmId": "node/1964536979"
    },
    {
      "school": "成都市李家沱实验小学校",
      "source": "OpenStreetMap/Overpass(WGS84->GCJ-02)",
      "matchedTitle": "成都市李家沱实验小学",
      "address": "",
      "score": 122,
      "distanceKm": 0,
      "location": {
        "lng": 104.09342544928401,
        "lat": 30.683373981385493
      },
      "old": [
        104.102,
        30.692
      ],
      "osmId": "way/1349797107"
    },
    {
      "school": "四川交响乐团附属小学",
      "source": "OpenStreetMap/Overpass(WGS84->GCJ-02)",
      "matchedTitle": "四川交响乐团附属小学",
      "address": "",
      "score": 160,
      "distanceKm": 0,
      "location": {
        "lng": 104.13016331995347,
        "lat": 30.66322508218381
      },
      "old": [
        104.086,
        30.672
      ],
      "osmId": "way/782390334"
    },
    {
      "school": "成都理工大学附属小学",
      "source": "OpenStreetMap/Overpass(WGS84->GCJ-02)",
      "matchedTitle": "成都理工大学附属小学",
      "address": "",
      "score": 125,
      "distanceKm": 0,
      "location": {
        "lng": 104.1466090793022,
        "lat": 30.690008548260412
      },
      "old": [
        104.15,
        30.682
      ],
      "osmId": "way/558143693"
    },
    {
      "school": "成都市成华区才艺学校",
      "source": "OpenStreetMap/Overpass(WGS84->GCJ-02)",
      "matchedTitle": "成华区才艺学校",
      "address": "",
      "score": 102,
      "distanceKm": 0,
      "location": {
        "lng": 104.14259977926875,
        "lat": 30.694040010519043
      },
      "old": [
        104.138,
        30.674
      ],
      "osmId": "way/1344799693"
    },
    {
      "school": "成都市双林小学",
      "source": "OpenStreetMap/Overpass(WGS84->GCJ-02)",
      "matchedTitle": "成都市双林小学",
      "address": "",
      "score": 160,
      "distanceKm": 0,
      "location": {
        "lng": 104.1071656972965,
        "lat": 30.652458901454423
      },
      "old": [
        104.108,
        30.68
      ],
      "osmId": "way/1356359803"
    },
    {
      "school": "成都市列五书池学校",
      "source": "OpenStreetMap/Overpass(WGS84->GCJ-02)",
      "matchedTitle": "列五书池学校",
      "address": "",
      "score": 99,
      "distanceKm": 0,
      "location": {
        "lng": 104.10076452392943,
        "lat": 30.651813599621253
      },
      "old": [
        104.116,
        30.678
      ],
      "osmId": "node/5453434386"
    },
    {
      "school": "成都市双林小学御风分校",
      "source": "OpenStreetMap/Overpass(WGS84->GCJ-02)",
      "matchedTitle": "成都市双林小学(御风分校)",
      "address": "",
      "score": 103,
      "distanceKm": 0,
      "location": {
        "lng": 104.13348628040652,
        "lat": 30.642089443737213
      },
      "old": [
        104.122,
        30.676
      ],
      "osmId": "way/1356926375"
    },
    {
      "school": "成都市蓉城小学",
      "source": "OpenStreetMap/Overpass(WGS84->GCJ-02)",
      "matchedTitle": "蓉城小学",
      "address": "",
      "score": 99,
      "distanceKm": 0,
      "location": {
        "lng": 104.1461102891833,
        "lat": 30.6317008502879
      },
      "old": [
        104.14,
        30.666
      ],
      "osmId": "way/1357151819"
    },
    {
      "school": "成都市锦汇东城小学",
      "source": "OpenStreetMap/Overpass(WGS84->GCJ-02)",
      "matchedTitle": "成都市锦汇东城小学",
      "address": "",
      "score": 160,
      "distanceKm": 0,
      "location": {
        "lng": 104.13272343158849,
        "lat": 30.645397995319307
      },
      "old": [
        104.15,
        30.666
      ],
      "osmId": "way/1356926319"
    },
    {
      "school": "成都市龙潭小学校",
      "source": "OpenStreetMap/Overpass(WGS84->GCJ-02)",
      "matchedTitle": "成都市龙潭小学校",
      "address": "",
      "score": 160,
      "distanceKm": 0,
      "location": {
        "lng": 104.16405814940282,
        "lat": 30.704161701574577
      },
      "old": [
        104.145,
        30.7
      ],
      "osmId": "way/1294914316"
    },
    {
      "school": "成都市双庆小学校",
      "source": "OpenStreetMap/Overpass(WGS84->GCJ-02)",
      "matchedTitle": "成都市双庆小学校",
      "address": "",
      "score": 160,
      "distanceKm": 0,
      "location": {
        "lng": 104.12473405024889,
        "lat": 30.646953906117535
      },
      "old": [
        104.126,
        30.664
      ],
      "osmId": "way/1356651523"
    },
    {
      "school": "成都市石室小学",
      "source": "OpenStreetMap/Overpass(WGS84->GCJ-02)",
      "matchedTitle": "石室小学",
      "address": "",
      "score": 99,
      "distanceKm": 0,
      "location": {
        "lng": 104.11956620983638,
        "lat": 30.647486814195666
      },
      "old": [
        104.134,
        30.658
      ],
      "osmId": "way/573410347"
    },
    {
      "school": "成都双语实验学校",
      "source": "OpenStreetMap/Overpass(WGS84->GCJ-02)",
      "matchedTitle": "成都双语实验学校",
      "address": "",
      "score": 152,
      "distanceKm": 0,
      "location": {
        "lng": 104.09879910853861,
        "lat": 30.658944720902372
      },
      "old": [
        104.152,
        30.658
      ],
      "osmId": "way/590215094"
    },
    {
      "school": "成都市二仙桥学校",
      "source": "OpenStreetMap/Overpass(WGS84->GCJ-02)",
      "matchedTitle": "成都二仙桥学校",
      "address": "",
      "score": 152,
      "distanceKm": 0,
      "location": {
        "lng": 104.13760506284319,
        "lat": 30.67847677752884
      },
      "old": [
        104.124,
        30.69
      ],
      "osmId": "way/1344792567"
    },
    {
      "school": "成都市成华区特殊教育学校",
      "source": "OpenStreetMap/Overpass(WGS84->GCJ-02)",
      "matchedTitle": "成都市成华区特殊教育学校",
      "address": "",
      "score": 152,
      "distanceKm": 0,
      "location": {
        "lng": 104.09415843272222,
        "lat": 30.654219670759446
      },
      "old": [
        104.112,
        30.694
      ],
      "osmId": "way/1356157721"
    },
    {
      "school": "成都双语实验学校和悦分校",
      "source": "OpenStreetMap/Overpass(WGS84->GCJ-02)",
      "matchedTitle": "成都双语实验学校和悦分校（初中部）",
      "address": "",
      "score": 152,
      "distanceKm": 0,
      "location": {
        "lng": 104.15327678758268,
        "lat": 30.650750911632027
      },
      "old": [
        104.164,
        30.692
      ],
      "osmId": "way/1040225528"
    },
    {
      "school": "成都市树德小学",
      "source": "OpenStreetMap/Overpass(WGS84->GCJ-02)",
      "matchedTitle": "成都树德小学(和韵校区)",
      "address": "",
      "score": 82,
      "distanceKm": 0,
      "location": {
        "lng": 104.15805535459428,
        "lat": 30.623528906134727
      },
      "old": [
        104.176,
        30.682
      ],
      "osmId": "way/1012497808"
    },
    {
      "school": "成都万汇学校",
      "source": "OpenStreetMap/Overpass(WGS84->GCJ-02)",
      "matchedTitle": "成都万汇学校",
      "address": "",
      "score": 152,
      "distanceKm": 0,
      "location": {
        "lng": 104.13940045282705,
        "lat": 30.68546408353154
      },
      "old": [
        104.182,
        30.688
      ],
      "osmId": "way/955368589"
    },
    {
      "school": "成都大学附属中学",
      "source": "OpenStreetMap/Overpass(WGS84->GCJ-02)",
      "matchedTitle": "成都大学附属中学",
      "address": "",
      "score": 123,
      "distanceKm": 0,
      "location": {
        "lng": 104.1246556000238,
        "lat": 30.624830210516205
      },
      "old": [
        104.17,
        30.678
      ],
      "osmId": "way/1357729907"
    },
    {
      "school": "成都市实验中学",
      "source": "OpenStreetMap/Overpass(WGS84->GCJ-02)",
      "matchedTitle": "成都市实验中学",
      "address": "",
      "score": 158,
      "distanceKm": 0,
      "location": {
        "lng": 104.12268127921817,
        "lat": 30.70625909774862
      },
      "old": [
        104.096,
        30.704
      ],
      "osmId": "node/12842161340"
    },
    {
      "school": "成都市第四十中学校",
      "source": "OpenStreetMap/Overpass(WGS84->GCJ-02)",
      "matchedTitle": "成都市第四十中学",
      "address": "",
      "score": 118,
      "distanceKm": 0,
      "location": {
        "lng": 104.10033222748642,
        "lat": 30.701853698853647
      },
      "old": [
        104.108,
        30.71
      ],
      "osmId": "way/589183748"
    },
    {
      "school": "成都英才学校",
      "source": "OpenStreetMap/Overpass(WGS84->GCJ-02)",
      "matchedTitle": "成都七中英才学校",
      "address": "",
      "score": 93,
      "distanceKm": 0,
      "location": {
        "lng": 104.13107270573144,
        "lat": 30.69098163614618
      },
      "old": [
        104.132,
        30.684
      ],
      "osmId": "way/955368585"
    },
    {
      "school": "四川省成都华西中学",
      "source": "OpenStreetMap/Overpass(WGS84->GCJ-02)",
      "matchedTitle": "成都华西中学",
      "address": "",
      "score": 158,
      "distanceKm": 0,
      "location": {
        "lng": 104.11305081230755,
        "lat": 30.679531713213805
      },
      "old": [
        104.092,
        30.666
      ],
      "osmId": "way/942258753"
    },
    {
      "school": "成都石室中学初中学校",
      "source": "OpenStreetMap/Overpass(WGS84->GCJ-02)",
      "matchedTitle": "成都石室中学初中学校（过渡校区）",
      "address": "",
      "score": 93,
      "distanceKm": 0,
      "location": {
        "lng": 104.0964718415763,
        "lat": 30.672597168500815
      },
      "old": [
        104.116,
        30.678
      ],
      "osmId": "way/678838738"
    },
    {
      "school": "四川省成都列五中学",
      "source": "OpenStreetMap/Overpass(WGS84->GCJ-02)",
      "matchedTitle": "四川省成都列五中学（初中部）",
      "address": "",
      "score": 158,
      "distanceKm": 0,
      "location": {
        "lng": 104.0865102271254,
        "lat": 30.66921062455199
      },
      "old": [
        104.108,
        30.68
      ],
      "osmId": "node/1958204273"
    },
    {
      "school": "成都双语实验学校（初中部）",
      "source": "OpenStreetMap/Overpass(WGS84->GCJ-02)",
      "matchedTitle": "成都双语实验学校",
      "address": "",
      "score": 158,
      "distanceKm": 0,
      "location": {
        "lng": 104.09879910853861,
        "lat": 30.658944720902372
      },
      "old": [
        104.152,
        30.658
      ],
      "osmId": "way/590215094"
    },
    {
      "school": "成都市二仙桥学校（初中部）",
      "source": "OpenStreetMap/Overpass(WGS84->GCJ-02)",
      "matchedTitle": "成都二仙桥学校",
      "address": "",
      "score": 158,
      "distanceKm": 0,
      "location": {
        "lng": 104.13760506284319,
        "lat": 30.67847677752884
      },
      "old": [
        104.124,
        30.69
      ],
      "osmId": "way/1344792567"
    },
    {
      "school": "成都万汇学校（初中部）",
      "source": "OpenStreetMap/Overpass(WGS84->GCJ-02)",
      "matchedTitle": "成都万汇学校",
      "address": "",
      "score": 158,
      "distanceKm": 0,
      "location": {
        "lng": 104.13940045282705,
        "lat": 30.68546408353154
      },
      "old": [
        104.182,
        30.688
      ],
      "osmId": "way/955368589"
    },
    {
      "school": "四川省成都市第四十九中学校(和美校区)",
      "source": "OpenStreetMap/Overpass(WGS84->GCJ-02)",
      "matchedTitle": "成都市第四十九中学(和美校区)",
      "address": "",
      "score": 104,
      "distanceKm": 0,
      "location": {
        "lng": 104.15807693122534,
        "lat": 30.630443511108744
      },
      "old": [
        104.164,
        30.692
      ],
      "osmId": "way/1322795584"
    },
    {
      "school": "成都双语实验学校和悦分校（初中部）",
      "source": "OpenStreetMap/Overpass(WGS84->GCJ-02)",
      "matchedTitle": "成都双语实验学校和悦分校（初中部）",
      "address": "",
      "score": 158,
      "distanceKm": 0,
      "location": {
        "lng": 104.15327678758268,
        "lat": 30.650750911632027
      },
      "old": [
        104.164,
        30.694
      ],
      "osmId": "way/1040225528"
    },
    {
      "school": "成都市第三十八中学校",
      "source": "OpenStreetMap/Overpass(WGS84->GCJ-02)",
      "matchedTitle": "成都市第三十八中学校",
      "address": "",
      "score": 158,
      "distanceKm": 0,
      "location": {
        "lng": 104.16927774195857,
        "lat": 30.704221295008335
      },
      "old": [
        104.154,
        30.704
      ],
      "osmId": "way/1137260090"
    },
    {
      "school": "成都市成华区特殊教育学校（初中部）",
      "source": "OpenStreetMap/Overpass(WGS84->GCJ-02)",
      "matchedTitle": "成都市成华区特殊教育学校",
      "address": "",
      "score": 158,
      "distanceKm": 0,
      "location": {
        "lng": 104.09415843272222,
        "lat": 30.654219670759446
      },
      "old": [
        104.112,
        30.694
      ],
      "osmId": "way/1356157721"
    },
    {
      "school": "成都芯谷实验学校",
      "source": "OpenStreetMap/Overpass(WGS84->GCJ-02)",
      "matchedTitle": "成都芯谷实验学校",
      "address": "",
      "score": 158,
      "distanceKm": 0,
      "location": {
        "lng": 103.89675279215567,
        "lat": 30.56590834870293
      },
      "old": [
        103.895,
        30.572
      ],
      "osmId": "way/1316092225"
    },
    {
      "school": "成都市双流区棠湖中学实验学校",
      "source": "OpenStreetMap/Overpass(WGS84->GCJ-02)",
      "matchedTitle": "棠湖中学实验学校",
      "address": "",
      "score": 92,
      "distanceKm": 0,
      "location": {
        "lng": 103.92156864104702,
        "lat": 30.592630589133417
      },
      "old": [
        103.918,
        30.566
      ],
      "osmId": "way/1053212257"
    },
    {
      "school": "四川省双流中学九江实验学校",
      "source": "OpenStreetMap/Overpass(WGS84->GCJ-02)",
      "matchedTitle": "双流中学九江实验学校（北区）",
      "address": "",
      "score": 89,
      "distanceKm": 0,
      "location": {
        "lng": 103.94580908097613,
        "lat": 30.656923788019643
      },
      "old": [
        103.91,
        30.66
      ],
      "osmId": "way/1463343525"
    },
    {
      "school": "成都市双流区九江新城初级中学",
      "source": "OpenStreetMap/Overpass(WGS84->GCJ-02)",
      "matchedTitle": "九江新城初级中学",
      "address": "",
      "score": 92,
      "distanceKm": 0,
      "location": {
        "lng": 103.92197655356811,
        "lat": 30.611270053241675
      },
      "old": [
        103.935,
        30.675
      ],
      "osmId": "way/1169380090"
    },
    {
      "school": "四川省成都市双流区西航港第二初级中学",
      "source": "OpenStreetMap/Overpass(WGS84->GCJ-02)",
      "matchedTitle": "西航港第二初级中学",
      "address": "",
      "score": 105,
      "distanceKm": 0,
      "location": {
        "lng": 103.98482777851191,
        "lat": 30.54804358657179
      },
      "old": [
        104.005,
        30.575
      ],
      "osmId": "way/484367584"
    },
    {
      "school": "成都空港九龙湖学校",
      "source": "OpenStreetMap/Overpass(WGS84->GCJ-02)",
      "matchedTitle": "成都空港九龙湖学校",
      "address": "",
      "score": 158,
      "distanceKm": 0,
      "location": {
        "lng": 104.00204270305078,
        "lat": 30.527206216236948
      },
      "old": [
        103.955,
        30.545
      ],
      "osmId": "way/1293441110"
    },
    {
      "school": "四川省成都市双流区胜利初级中学",
      "source": "OpenStreetMap/Overpass(WGS84->GCJ-02)",
      "matchedTitle": "胜利初级中学",
      "address": "",
      "score": 97,
      "distanceKm": 0,
      "location": {
        "lng": 103.9074716912639,
        "lat": 30.49958544866206
      },
      "old": [
        103.835,
        30.52
      ],
      "osmId": "way/587191928"
    },
    {
      "school": "成都市双流区怡心第一实验学校",
      "source": "OpenStreetMap/Overpass(WGS84->GCJ-02)",
      "matchedTitle": "成都市双流区怡心第一实验学校",
      "address": "",
      "score": 158,
      "distanceKm": 0,
      "location": {
        "lng": 104.03375798327153,
        "lat": 30.521617263354283
      },
      "old": [
        104.015,
        30.5
      ],
      "osmId": "way/1352329928"
    },
    {
      "school": "成都市人民北路小学校",
      "source": "OpenStreetMap/Overpass(WGS84->GCJ-02)",
      "matchedTitle": "成都市人民北路小学",
      "address": "",
      "score": 121,
      "distanceKm": 0,
      "location": {
        "lng": 104.0743765607837,
        "lat": 30.681778686434225
      },
      "old": [
        104.07,
        30.695
      ],
      "osmId": "way/1349226112"
    },
    {
      "school": "成都市张家巷小学校",
      "source": "OpenStreetMap/Overpass(WGS84->GCJ-02)",
      "matchedTitle": "张家巷小学",
      "address": "",
      "score": 95,
      "distanceKm": 0,
      "location": {
        "lng": 104.08256721619814,
        "lat": 30.67903859958912
      },
      "old": [
        104.073,
        30.699
      ],
      "osmId": "node/5815413594"
    },
    {
      "school": "成都市马鞍小学校",
      "source": "OpenStreetMap/Overpass(WGS84->GCJ-02)",
      "matchedTitle": "马鞍小学",
      "address": "",
      "score": 89,
      "distanceKm": 0,
      "location": {
        "lng": 104.09063661389888,
        "lat": 30.677619165923684
      },
      "old": [
        104.071,
        30.704
      ],
      "osmId": "way/1349242451"
    },
    {
      "school": "成都市解放北路第一小学校",
      "source": "OpenStreetMap/Overpass(WGS84->GCJ-02)",
      "matchedTitle": "解放北路第一小学",
      "address": "",
      "score": 105,
      "distanceKm": 0,
      "location": {
        "lng": 104.08479588308008,
        "lat": 30.683740155373552
      },
      "old": [
        104.066,
        30.7
      ],
      "osmId": "way/614874100"
    },
    {
      "school": "成都市驷马桥小学校",
      "source": "OpenStreetMap/Overpass(WGS84->GCJ-02)",
      "matchedTitle": "成都市驷马桥小学校",
      "address": "",
      "score": 160,
      "distanceKm": 0,
      "location": {
        "lng": 104.08503620466945,
        "lat": 30.691845376105423
      },
      "old": [
        104.074,
        30.713
      ],
      "osmId": "way/1350380627"
    },
    {
      "school": "成都市人北实验小学校",
      "source": "OpenStreetMap/Overpass(WGS84->GCJ-02)",
      "matchedTitle": "成都市人北实验小学",
      "address": "",
      "score": 121,
      "distanceKm": 0,
      "location": {
        "lng": 104.09097961559125,
        "lat": 30.68739930238853
      },
      "old": [
        104.062,
        30.696
      ],
      "osmId": "way/893262367"
    },
    {
      "school": "成都市荷花池小学校",
      "source": "OpenStreetMap/Overpass(WGS84->GCJ-02)",
      "matchedTitle": "荷花池小学",
      "address": "",
      "score": 95,
      "distanceKm": 0,
      "location": {
        "lng": 104.07887142498903,
        "lat": 30.695019067409753
      },
      "old": [
        104.065,
        30.706
      ],
      "osmId": "node/5586338085"
    },
    {
      "school": "成都市北站小学校",
      "source": "OpenStreetMap/Overpass(WGS84->GCJ-02)",
      "matchedTitle": "北站小学",
      "address": "",
      "score": 89,
      "distanceKm": 0,
      "location": {
        "lng": 104.06791470015341,
        "lat": 30.68887654901099
      },
      "old": [
        104.059,
        30.704
      ],
      "osmId": "way/1117571383"
    },
    {
      "school": "成都市五块石小学校",
      "source": "OpenStreetMap/Overpass(WGS84->GCJ-02)",
      "matchedTitle": "成都市五块石小学",
      "address": "",
      "score": 120,
      "distanceKm": 0,
      "location": {
        "lng": 104.0651699456605,
        "lat": 30.702214853181452
      },
      "old": [
        104.064,
        30.719
      ],
      "osmId": "way/1363065809"
    },
    {
      "school": "成都市五丁小学校",
      "source": "OpenStreetMap/Overpass(WGS84->GCJ-02)",
      "matchedTitle": "成都五丁小学",
      "address": "",
      "score": 118,
      "distanceKm": 0,
      "location": {
        "lng": 104.06083940167812,
        "lat": 30.689799257835706
      },
      "old": [
        104.056,
        30.696
      ],
      "osmId": "way/1227376559"
    },
    {
      "school": "成都市锦西外国语实验小学校",
      "source": "OpenStreetMap/Overpass(WGS84->GCJ-02)",
      "matchedTitle": "成都市锦西外国语实验小学",
      "address": "",
      "score": 124,
      "distanceKm": 0,
      "location": {
        "lng": 104.04843672614984,
        "lat": 30.706601153652326
      },
      "old": [
        104.046,
        30.704
      ],
      "osmId": "way/1361161038"
    },
    {
      "school": "成都市沙湾路小学校",
      "source": "OpenStreetMap/Overpass(WGS84->GCJ-02)",
      "matchedTitle": "沙湾路小学",
      "address": "",
      "score": 95,
      "distanceKm": 0,
      "location": {
        "lng": 104.05110135664302,
        "lat": 30.68597891223544
      },
      "old": [
        104.049,
        30.706
      ],
      "osmId": "way/587525887"
    },
    {
      "school": "成都市光荣小学校",
      "source": "OpenStreetMap/Overpass(WGS84->GCJ-02)",
      "matchedTitle": "光荣小学校",
      "address": "",
      "score": 103,
      "distanceKm": 0,
      "location": {
        "lng": 104.04333285686505,
        "lat": 30.691093700360238
      },
      "old": [
        104.04,
        30.707
      ],
      "osmId": "way/1354674766"
    },
    {
      "school": "成都市茶店子小学校九里堤分校",
      "source": "OpenStreetMap/Overpass(WGS84->GCJ-02)",
      "matchedTitle": "成都市茶店子小学校(九里堤分校)",
      "address": "",
      "score": 107,
      "distanceKm": 0,
      "location": {
        "lng": 104.05352385355496,
        "lat": 30.706582180286723
      },
      "old": [
        104.045,
        30.717
      ],
      "osmId": "way/1361171439"
    },
    {
      "school": "成都市新桥小学校",
      "source": "OpenStreetMap/Overpass(WGS84->GCJ-02)",
      "matchedTitle": "成都市新桥小学校",
      "address": "",
      "score": 160,
      "distanceKm": 0,
      "location": {
        "lng": 104.04983029880277,
        "lat": 30.71305527968632
      },
      "old": [
        104.034,
        30.716
      ],
      "osmId": "way/1126695484"
    },
    {
      "school": "成都市抚琴小学校",
      "source": "OpenStreetMap/Overpass(WGS84->GCJ-02)",
      "matchedTitle": "成都市金琴路小学",
      "address": "",
      "score": 91,
      "distanceKm": 0,
      "location": {
        "lng": 104.03882910216039,
        "lat": 30.67936725715769
      },
      "old": [
        104.039,
        30.702
      ],
      "osmId": "way/1360346685"
    },
    {
      "school": "成都市金琴路小学校",
      "source": "OpenStreetMap/Overpass(WGS84->GCJ-02)",
      "matchedTitle": "成都市金琴路小学",
      "address": "",
      "score": 120,
      "distanceKm": 0,
      "location": {
        "lng": 104.03882910216039,
        "lat": 30.67936725715769
      },
      "old": [
        104.032,
        30.706
      ],
      "osmId": "way/1360346685"
    },
    {
      "school": "成都市西安路小学校",
      "source": "OpenStreetMap/Overpass(WGS84->GCJ-02)",
      "matchedTitle": "成都市西安路小学",
      "address": "",
      "score": 120,
      "distanceKm": 0,
      "location": {
        "lng": 104.0470465434053,
        "lat": 30.670294953582285
      },
      "old": [
        104.044,
        30.695
      ],
      "osmId": "way/1276035481"
    },
    {
      "school": "成都市白果林小学校",
      "source": "OpenStreetMap/Overpass(WGS84->GCJ-02)",
      "matchedTitle": "成都市白果林小学校",
      "address": "",
      "score": 160,
      "distanceKm": 0,
      "location": {
        "lng": 104.03572654451938,
        "lat": 30.67132714794934
      },
      "old": [
        104.03,
        30.7
      ],
      "osmId": "way/1359558932"
    },
    {
      "school": "成都市茶店子小学校",
      "source": "OpenStreetMap/Overpass(WGS84->GCJ-02)",
      "matchedTitle": "成都市茶店子小学校（北区）",
      "address": "",
      "score": 99,
      "distanceKm": 0,
      "location": {
        "lng": 104.01602954401413,
        "lat": 30.70002679789879
      },
      "old": [
        104.021,
        30.711
      ],
      "osmId": "way/1167491893"
    },
    {
      "school": "成都市营门口小学校",
      "source": "OpenStreetMap/Overpass(WGS84->GCJ-02)",
      "matchedTitle": "成都市营门口小学校",
      "address": "",
      "score": 160,
      "distanceKm": 0,
      "location": {
        "lng": 104.02092545466071,
        "lat": 30.68623283293406
      },
      "old": [
        104.03,
        30.711
      ],
      "osmId": "way/1360056186"
    },
    {
      "school": "成都市行知小学校",
      "source": "OpenStreetMap/Overpass(WGS84->GCJ-02)",
      "matchedTitle": "行知小学校",
      "address": "",
      "score": 103,
      "distanceKm": 0,
      "location": {
        "lng": 104.0363926870961,
        "lat": 30.703430598767596
      },
      "old": [
        104.015,
        30.715
      ],
      "osmId": "way/1355724628"
    },
    {
      "school": "成都市奥林小学校",
      "source": "OpenStreetMap/Overpass(WGS84->GCJ-02)",
      "matchedTitle": "成都市友谊小学校",
      "address": "",
      "score": 91,
      "distanceKm": 0,
      "location": {
        "lng": 104.01765977804159,
        "lat": 30.706717261924766
      },
      "old": [
        104.011,
        30.708
      ],
      "osmId": "way/1151495746"
    },
    {
      "school": "成都市蜀汉外国语实验小学校",
      "source": "OpenStreetMap/Overpass(WGS84->GCJ-02)",
      "matchedTitle": "成都市蜀汉外国语实验小学",
      "address": "",
      "score": 124,
      "distanceKm": 0,
      "location": {
        "lng": 104.00889170625328,
        "lat": 30.69475995603217
      },
      "old": [
        104.009,
        30.713
      ],
      "osmId": "way/1167113578"
    },
    {
      "school": "成都市金建小学校",
      "source": "OpenStreetMap/Overpass(WGS84->GCJ-02)",
      "matchedTitle": "成都市金科路小学校",
      "address": "",
      "score": 95,
      "distanceKm": 0,
      "location": {
        "lng": 103.98707054449454,
        "lat": 30.707606685651673
      },
      "old": [
        103.997,
        30.718
      ],
      "osmId": "way/1164682208"
    },
    {
      "school": "成都市沙河源小学校",
      "source": "OpenStreetMap/Overpass(WGS84->GCJ-02)",
      "matchedTitle": "沙河源小学",
      "address": "",
      "score": 95,
      "distanceKm": 0,
      "location": {
        "lng": 104.05446360458866,
        "lat": 30.721703563539318
      },
      "old": [
        104.056,
        30.727
      ],
      "osmId": "way/1126696808"
    },
    {
      "school": "成都市凤凰小学校",
      "source": "OpenStreetMap/Overpass(WGS84->GCJ-02)",
      "matchedTitle": "凤凰小学",
      "address": "",
      "score": 89,
      "distanceKm": 0,
      "location": {
        "lng": 104.0712416283085,
        "lat": 30.732882586698246
      },
      "old": [
        104.027,
        30.732
      ],
      "osmId": "way/1115718483"
    },
    {
      "school": "成都市全兴小学校",
      "source": "OpenStreetMap/Overpass(WGS84->GCJ-02)",
      "matchedTitle": "全兴小学",
      "address": "",
      "score": 89,
      "distanceKm": 0,
      "location": {
        "lng": 104.01062785246742,
        "lat": 30.73822672021108
      },
      "old": [
        103.993,
        30.725
      ],
      "osmId": "way/1311981107"
    },
    {
      "school": "成都市兴盛小学校",
      "source": "OpenStreetMap/Overpass(WGS84->GCJ-02)",
      "matchedTitle": "兴盛小学",
      "address": "",
      "score": 89,
      "distanceKm": 0,
      "location": {
        "lng": 104.01601046077086,
        "lat": 30.72922995034838
      },
      "old": [
        103.987,
        30.728
      ],
      "osmId": "way/563530106"
    },
    {
      "school": "成都市天回小学校",
      "source": "OpenStreetMap/Overpass(WGS84->GCJ-02)",
      "matchedTitle": "成都市天回小学校",
      "address": "",
      "score": 160,
      "distanceKm": 0,
      "location": {
        "lng": 104.11236057503719,
        "lat": 30.768747024296857
      },
      "old": [
        104.046,
        30.752
      ],
      "osmId": "way/1424819926"
    },
    {
      "school": "成都市人民北路小学校天北校区",
      "source": "OpenStreetMap/Overpass(WGS84->GCJ-02)",
      "matchedTitle": "成都市人民北路小学（天北校区）",
      "address": "",
      "score": 106,
      "distanceKm": 0,
      "location": {
        "lng": 104.09116425879694,
        "lat": 30.774373359379418
      },
      "old": [
        104.068,
        30.738
      ],
      "osmId": "way/1071185411"
    },
    {
      "school": "成都市友谊小学校",
      "source": "OpenStreetMap/Overpass(WGS84->GCJ-02)",
      "matchedTitle": "成都市友谊小学校",
      "address": "",
      "score": 160,
      "distanceKm": 0,
      "location": {
        "lng": 104.01765977804159,
        "lat": 30.706717261924766
      },
      "old": [
        103.985,
        30.736
      ],
      "osmId": "way/1151495746"
    },
    {
      "school": "成都市茶店子小学校金樽分校",
      "source": "OpenStreetMap/Overpass(WGS84->GCJ-02)",
      "matchedTitle": "成都市茶店子小学校（金樽分校）",
      "address": "",
      "score": 106,
      "distanceKm": 0,
      "location": {
        "lng": 103.99587426656058,
        "lat": 30.72348523812219
      },
      "old": [
        104.007,
        30.704
      ],
      "osmId": "way/1165106472"
    },
    {
      "school": "成都市迎宾路小学校",
      "source": "OpenStreetMap/Overpass(WGS84->GCJ-02)",
      "matchedTitle": "成都市金科路小学校",
      "address": "",
      "score": 95,
      "distanceKm": 0,
      "location": {
        "lng": 103.98707054449454,
        "lat": 30.707606685651673
      },
      "old": [
        103.996,
        30.707
      ],
      "osmId": "way/1164682208"
    },
    {
      "school": "成都市茶店子小学校国宾校区",
      "source": "OpenStreetMap/Overpass(WGS84->GCJ-02)",
      "matchedTitle": "成都市茶店子小学校（国宾校区）",
      "address": "",
      "score": 106,
      "distanceKm": 0,
      "location": {
        "lng": 104.00434034386961,
        "lat": 30.716251472105743
      },
      "old": [
        103.99,
        30.71
      ],
      "osmId": "way/1152418185"
    },
    {
      "school": "成都市金科路小学校",
      "source": "OpenStreetMap/Overpass(WGS84->GCJ-02)",
      "matchedTitle": "成都市金科路小学校",
      "address": "",
      "score": 160,
      "distanceKm": 0,
      "location": {
        "lng": 103.98707054449454,
        "lat": 30.707606685651673
      },
      "old": [
        103.982,
        30.714
      ],
      "osmId": "way/1164682208"
    },
    {
      "school": "成都市铁中府河学校",
      "source": "OpenStreetMap/Overpass(WGS84->GCJ-02)",
      "matchedTitle": "成都市铁中府河学校",
      "address": "",
      "score": 152,
      "distanceKm": 0,
      "location": {
        "lng": 104.02671284550732,
        "lat": 30.72758757399492
      },
      "old": [
        104.057,
        30.715
      ],
      "osmId": "way/1126695509"
    },
    {
      "school": "成都市铁路中学校梧桐校区",
      "source": "OpenStreetMap/Overpass(WGS84->GCJ-02)",
      "matchedTitle": "成都市铁路中学校梧桐校区小学部",
      "address": "",
      "score": 111,
      "distanceKm": 0,
      "location": {
        "lng": 104.0834100833411,
        "lat": 30.718431329132134
      },
      "old": [
        104.06,
        30.711
      ],
      "osmId": "way/631833089"
    },
    {
      "school": "成都市铁路中学校",
      "source": "OpenStreetMap/Overpass(WGS84->GCJ-02)",
      "matchedTitle": "成都市铁路中学校",
      "address": "",
      "score": 158,
      "distanceKm": 0,
      "location": {
        "lng": 104.06755273124718,
        "lat": 30.68488297514173
      },
      "old": [
        104.06,
        30.706
      ],
      "osmId": "way/469523905"
    },
    {
      "school": "成都市第八中学校",
      "source": "OpenStreetMap/Overpass(WGS84->GCJ-02)",
      "matchedTitle": "成都市第八中学",
      "address": "一环路北三段72号",
      "score": 116,
      "distanceKm": 0,
      "location": {
        "lng": 104.08027113377514,
        "lat": 30.681403390836095
      },
      "old": [
        104.064,
        30.699
      ],
      "osmId": "way/259709199"
    },
    {
      "school": "成都市人民北路中学校",
      "source": "OpenStreetMap/Overpass(WGS84->GCJ-02)",
      "matchedTitle": "人民北路中学",
      "address": "",
      "score": 97,
      "distanceKm": 0,
      "location": {
        "lng": 104.0672606341077,
        "lat": 30.681847650584853
      },
      "old": [
        104.057,
        30.701
      ],
      "osmId": "way/1348996767"
    },
    {
      "school": "成都市锦西中学校",
      "source": "OpenStreetMap/Overpass(WGS84->GCJ-02)",
      "matchedTitle": "锦西中学",
      "address": "",
      "score": 87,
      "distanceKm": 0,
      "location": {
        "lng": 104.05104086512365,
        "lat": 30.705176083171995
      },
      "old": [
        104.045,
        30.707
      ],
      "osmId": "way/266767880"
    },
    {
      "school": "成都市金牛区嘉祥学校",
      "source": "OpenStreetMap/Overpass(WGS84->GCJ-02)",
      "matchedTitle": "金牛区嘉祥学校",
      "address": "",
      "score": 108,
      "distanceKm": 0,
      "location": {
        "lng": 104.06868247080122,
        "lat": 30.70934500356055
      },
      "old": [
        104.038,
        30.704
      ],
      "osmId": "way/946475304"
    },
    {
      "school": "成都市第十八中学校",
      "source": "OpenStreetMap/Overpass(WGS84->GCJ-02)",
      "matchedTitle": "成都第十八中学校",
      "address": "",
      "score": 158,
      "distanceKm": 0,
      "location": {
        "lng": 104.03243108437724,
        "lat": 30.676946254430383
      },
      "old": [
        104.052,
        30.698
      ],
      "osmId": "way/266767877"
    },
    {
      "school": "成都市通锦中学校",
      "source": "OpenStreetMap/Overpass(WGS84->GCJ-02)",
      "matchedTitle": "成都市通锦中学",
      "address": "",
      "score": 116,
      "distanceKm": 0,
      "location": {
        "lng": 104.05594826835609,
        "lat": 30.68427411670355
      },
      "old": [
        104.049,
        30.702
      ],
      "osmId": "way/588531005"
    },
    {
      "school": "成都七中万达学校通锦校区",
      "source": "OpenStreetMap/Overpass(WGS84->GCJ-02)",
      "matchedTitle": "成都七中万达学校",
      "address": "金牛区盛安街1",
      "score": 107,
      "distanceKm": 0,
      "location": {
        "lng": 104.01901147403852,
        "lat": 30.73123953210482
      },
      "old": [
        104.047,
        30.699
      ],
      "osmId": "way/508443706"
    },
    {
      "school": "成都市金牛实验中学校",
      "source": "OpenStreetMap/Overpass(WGS84->GCJ-02)",
      "matchedTitle": "成都金牛实验中学",
      "address": "",
      "score": 119,
      "distanceKm": 0,
      "location": {
        "lng": 104.03766757440033,
        "lat": 30.674192492893578
      },
      "old": [
        104.012,
        30.713
      ],
      "osmId": "way/1252702039"
    },
    {
      "school": "成都市石笋街学校",
      "source": "OpenStreetMap/Overpass(WGS84->GCJ-02)",
      "matchedTitle": "石笋街学校",
      "address": "",
      "score": 101,
      "distanceKm": 0,
      "location": {
        "lng": 104.0281800660005,
        "lat": 30.68811546672947
      },
      "old": [
        104.021,
        30.702
      ],
      "osmId": "way/1197735896"
    },
    {
      "school": "成都市树德实验中学沙河校区",
      "source": "OpenStreetMap/Overpass(WGS84->GCJ-02)",
      "matchedTitle": "树德实验中学沙河校区",
      "address": "",
      "score": 113,
      "distanceKm": 0,
      "location": {
        "lng": 104.05040333328654,
        "lat": 30.730778363462747
      },
      "old": [
        104.057,
        30.727
      ],
      "osmId": "way/1122240391"
    },
    {
      "school": "成都市铁路中学校梧桐校区（初中部）",
      "source": "OpenStreetMap/Overpass(WGS84->GCJ-02)",
      "matchedTitle": "成都市铁路中学校梧桐校区",
      "address": "",
      "score": 158,
      "distanceKm": 0,
      "location": {
        "lng": 104.08440254843737,
        "lat": 30.718095314991643
      },
      "old": [
        104.061,
        30.713
      ],
      "osmId": "way/1342931455"
    },
    {
      "school": "成都七中万达学校",
      "source": "OpenStreetMap/Overpass(WGS84->GCJ-02)",
      "matchedTitle": "成都七中万达学校",
      "address": "金牛区盛安街1",
      "score": 168,
      "distanceKm": 0,
      "location": {
        "lng": 104.01901147403852,
        "lat": 30.73123953210482
      },
      "old": [
        104.035,
        30.733
      ],
      "osmId": "way/508443706"
    },
    {
      "school": "成都市铁中府河学校（初中部）",
      "source": "OpenStreetMap/Overpass(WGS84->GCJ-02)",
      "matchedTitle": "成都市铁中府河学校",
      "address": "",
      "score": 158,
      "distanceKm": 0,
      "location": {
        "lng": 104.02671284550732,
        "lat": 30.72758757399492
      },
      "old": [
        104.055,
        30.716
      ],
      "osmId": "way/1126695509"
    },
    {
      "school": "成都市第三十六中学校",
      "source": "OpenStreetMap/Overpass(WGS84->GCJ-02)",
      "matchedTitle": "成都市第三十六中学校",
      "address": "",
      "score": 158,
      "distanceKm": 0,
      "location": {
        "lng": 104.11378711767497,
        "lat": 30.767957075410063
      },
      "old": [
        104.067,
        30.722
      ],
      "osmId": "way/1144304340"
    },
    {
      "school": "成都市铁路中学校立人校区",
      "source": "OpenStreetMap/Overpass(WGS84->GCJ-02)",
      "matchedTitle": "成都铁路中学立人校区",
      "address": "",
      "score": 109,
      "distanceKm": 0,
      "location": {
        "lng": 104.06687751588223,
        "lat": 30.79388531479775
      },
      "old": [
        104.055,
        30.739
      ],
      "osmId": "way/1054586503"
    },